$GPGGA,133033.893,4855.573,N,00910.652,E,1,12,1.0,0.0,M,0.0,M,,*69
$GPGSA,A,3,01,02,03,04,05,06,07,08,09,10,11,12,1.0,1.0,1.0*30
$GPRMC,133033.893,A,4855.573,N,00910.652,E,019.4,108.6,270617,000.0,W*7B
$GPGGA,133034.893,4855.571,N,00910.659,E,1,12,1.0,0.0,M,0.0,M,,*67
$GPGSA,A,3,01,02,03,04,05,06,07,08,09,10,11,12,1.0,1.0,1.0*30
$GPRMC,133034.893,A,4855.571,N,00910.659,E,019.4,108.6,270617,000.0,W*75
$GPGGA,133035.893,4855.568,N,00910.667,E,1,12,1.0,0.0,M,0.0,M,,*63
$GPGSA,A,3,01,02,03,04,05,06,07,08,09,10,11,12,1.0,1.0,1.0*30
$GPRMC,133035.893,A,4855.568,N,00910.667,E,019.4,108.6,270617,000.0,W*71
$GPGGA,133036.893,4855.566,N,00910.674,E,1,12,1.0,0.0,M,0.0,M,,*6C
$GPGSA,A,3,01,02,03,04,05,06,07,08,09,10,11,12,1.0,1.0,1.0*30
$GPRMC,133036.893,A,4855.566,N,00910.674,E,019.4,108.6,270617,000.0,W*7E
$GPGGA,133037.893,4855.563,N,00910.681,E,1,12,1.0,0.0,M,0.0,M,,*62
$GPGSA,A,3,01,02,03,04,05,06,07,08,09,10,11,12,1.0,1.0,1.0*30
$GPRMC,133037.893,A,4855.563,N,00910.681,E,019.4,108.6,270617,000.0,W*70
$GPGGA,133038.893,4855.561,N,00910.688,E,1,12,1.0,0.0,M,0.0,M,,*66
$GPGSA,A,3,01,02,03,04,05,06,07,08,09,10,11,12,1.0,1.0,1.0*30
$GPRMC,133038.893,A,4855.561,N,00910.688,E,019.4,108.6,270617,000.0,W*74
$GPGGA,133039.893,4855.559,N,00910.696,E,1,12,1.0,0.0,M,0.0,M,,*63
$GPGSA,A,3,01,02,03,04,05,06,07,08,09,10,11,12,1.0,1.0,1.0*30
$GPRMC,133039.893,A,4855.559,N,00910.696,E,019.4,108.6,270617,000.0,W*71
$GPGGA,133040.893,4855.556,N,00910.703,E,1,12,1.0,0.0,M,0.0,M,,*6F
$GPGSA,A,3,01,02,03,04,05,06,07,08,09,10,11,12,1.0,1.0,1.0*30
$GPRMC,133040.893,A,4855.556,N,00910.703,E,019.4,108.6,270617,000.0,W*7D
$GPGGA,133041.893,4855.554,N,00910.710,E,1,12,1.0,0.0,M,0.0,M,,*6E
$GPGSA,A,3,01,02,03,04,05,06,07,08,09,10,11,12,1.0,1.0,1.0*30
$GPRMC,133041.893,A,4855.554,N,00910.710,E,019.4,108.6,270617,000.0,W*7C
$GPGGA,133042.893,4855.551,N,00910.718,E,1,12,1.0,0.0,M,0.0,M,,*60
$GPGSA,A,3,01,02,03,04,05,06,07,08,09,10,11,12,1.0,1.0,1.0*30
$GPRMC,133042.893,A,4855.551,N,00910.718,E,019.4,108.6,270617,000.0,W*72
$GPGGA,133043.893,4855.549,N,00910.725,E,1,12,1.0,0.0,M,0.0,M,,*66
$GPGSA,A,3,01,02,03,04,05,06,07,08,09,10,11,12,1.0,1.0,1.0*30
$GPRMC,133043.893,A,4855.549,N,00910.725,E,019.4,108.6,270617,000.0,W*74
$GPGGA,133044.893,4855.546,N,00910.732,E,1,12,1.0,0.0,M,0.0,M,,*68
$GPGSA,A,3,01,02,03,04,05,06,07,08,09,10,11,12,1.0,1.0,1.0*30
$GPRMC,133044.893,A,4855.546,N,00910.732,E,019.4,108.6,270617,000.0,W*7A
$GPGGA,133045.893,4855.544,N,00910.740,E,1,12,1.0,0.0,M,0.0,M,,*6E
$GPGSA,A,3,01,02,03,04,05,06,07,08,09,10,11,12,1.0,1.0,1.0*30
$GPRMC,133045.893,A,4855.544,N,00910.740,E,019.4,108.6,270617,000.0,W*7C
$GPGGA,133046.893,4855.541,N,00910.747,E,1,12,1.0,0.0,M,0.0,M,,*6F
$GPGSA,A,3,01,02,03,04,05,06,07,08,09,10,11,12,1.0,1.0,1.0*30
$GPRMC,133046.893,A,4855.541,N,00910.747,E,019.4,108.6,270617,000.0,W*7D
$GPGGA,133047.893,4855.539,N,00910.754,E,1,12,1.0,0.0,M,0.0,M,,*63
$GPGSA,A,3,01,02,03,04,05,06,07,08,09,10,11,12,1.0,1.0,1.0*30
$GPRMC,133047.893,A,4855.539,N,00910.754,E,019.4,108.6,270617,000.0,W*71
$GPGGA,133048.893,4855.536,N,00910.762,E,1,12,1.0,0.0,M,0.0,M,,*66
$GPGSA,A,3,01,02,03,04,05,06,07,08,09,10,11,12,1.0,1.0,1.0*30
$GPRMC,133048.893,A,4855.536,N,00910.762,E,019.4,108.6,270617,000.0,W*74
$GPGGA,133049.893,4855.534,N,00910.769,E,1,12,1.0,0.0,M,0.0,M,,*6E
$GPGSA,A,3,01,02,03,04,05,06,07,08,09,10,11,12,1.0,1.0,1.0*30
$GPRMC,133049.893,A,4855.534,N,00910.769,E,019.4,108.6,270617,000.0,W*7C
$GPGGA,133050.893,4855.532,N,00910.776,E,1,12,1.0,0.0,M,0.0,M,,*6E
$GPGSA,A,3,01,02,03,04,05,06,07,08,09,10,11,12,1.0,1.0,1.0*30
$GPRMC,133050.893,A,4855.532,N,00910.776,E,019.4,108.6,270617,000.0,W*7C
$GPGGA,133051.893,4855.529,N,00910.784,E,1,12,1.0,0.0,M,0.0,M,,*68
$GPGSA,A,3,01,02,03,04,05,06,07,08,09,10,11,12,1.0,1.0,1.0*30
$GPRMC,133051.893,A,4855.529,N,00910.784,E,019.4,108.6,270617,000.0,W*7A
$GPGGA,133052.893,4855.527,N,00910.791,E,1,12,1.0,0.0,M,0.0,M,,*61
$GPGSA,A,3,01,02,03,04,05,06,07,08,09,10,11,12,1.0,1.0,1.0*30
$GPRMC,133052.893,A,4855.527,N,00910.791,E,019.4,108.6,270617,000.0,W*73
$GPGGA,133053.893,4855.524,N,00910.798,E,1,12,1.0,0.0,M,0.0,M,,*6A
$GPGSA,A,3,01,02,03,04,05,06,07,08,09,10,11,12,1.0,1.0,1.0*30
$GPRMC,133053.893,A,4855.524,N,00910.798,E,019.4,108.6,270617,000.0,W*78
$GPGGA,133054.893,4855.522,N,00910.805,E,1,12,1.0,0.0,M,0.0,M,,*60
$GPGSA,A,3,01,02,03,04,05,06,07,08,09,10,11,12,1.0,1.0,1.0*30
$GPRMC,133054.893,A,4855.522,N,00910.805,E,019.4,108.6,270617,000.0,W*72
$GPGGA,133055.893,4855.519,N,00910.813,E,1,12,1.0,0.0,M,0.0,M,,*6E
$GPGSA,A,3,01,02,03,04,05,06,07,08,09,10,11,12,1.0,1.0,1.0*30
$GPRMC,133055.893,A,4855.519,N,00910.813,E,019.4,108.6,270617,000.0,W*7C
$GPGGA,133056.893,4855.517,N,00910.820,E,1,12,1.0,0.0,M,0.0,M,,*63
$GPGSA,A,3,01,02,03,04,05,06,07,08,09,10,11,12,1.0,1.0,1.0*30
$GPRMC,133056.893,A,4855.517,N,00910.820,E,019.4,108.6,270617,000.0,W*71
$GPGGA,133057.893,4855.514,N,00910.827,E,1,12,1.0,0.0,M,0.0,M,,*66
$GPGSA,A,3,01,02,03,04,05,06,07,08,09,10,11,12,1.0,1.0,1.0*30
$GPRMC,133057.893,A,4855.514,N,00910.827,E,019.4,108.6,270617,000.0,W*74
$GPGGA,133058.893,4855.512,N,00910.835,E,1,12,1.0,0.0,M,0.0,M,,*6C
$GPGSA,A,3,01,02,03,04,05,06,07,08,09,10,11,12,1.0,1.0,1.0*30
$GPRMC,133058.893,A,4855.512,N,00910.835,E,019.4,108.6,270617,000.0,W*7E
$GPGGA,133059.893,4855.509,N,00910.842,E,1,12,1.0,0.0,M,0.0,M,,*67
$GPGSA,A,3,01,02,03,04,05,06,07,08,09,10,11,12,1.0,1.0,1.0*30
$GPRMC,133059.893,A,4855.509,N,00910.842,E,019.4,108.6,270617,000.0,W*75
$GPGGA,133100.893,4855.507,N,00910.849,E,1,12,1.0,0.0,M,0.0,M,,*6F
$GPGSA,A,3,01,02,03,04,05,06,07,08,09,10,11,12,1.0,1.0,1.0*30
$GPRMC,133100.893,A,4855.507,N,00910.849,E,019.4,108.6,270617,000.0,W*7D
$GPGGA,133101.893,4855.504,N,00910.857,E,1,12,1.0,0.0,M,0.0,M,,*62
$GPGSA,A,3,01,02,03,04,05,06,07,08,09,10,11,12,1.0,1.0,1.0*30
$GPRMC,133101.893,A,4855.504,N,00910.857,E,019.4,108.6,270617,000.0,W*70
$GPGGA,133102.893,4855.502,N,00910.864,E,1,12,1.0,0.0,M,0.0,M,,*67
$GPGSA,A,3,01,02,03,04,05,06,07,08,09,10,11,12,1.0,1.0,1.0*30
$GPRMC,133102.893,A,4855.502,N,00910.864,E,019.4,108.6,270617,000.0,W*75
$GPGGA,133103.893,4855.500,N,00910.871,E,1,12,1.0,0.0,M,0.0,M,,*60
$GPGSA,A,3,01,02,03,04,05,06,07,08,09,10,11,12,1.0,1.0,1.0*30
$GPRMC,133103.893,A,4855.500,N,00910.871,E,019.4,108.6,270617,000.0,W*72
$GPGGA,133104.893,4855.497,N,00910.879,E,1,12,1.0,0.0,M,0.0,M,,*60
$GPGSA,A,3,01,02,03,04,05,06,07,08,09,10,11,12,1.0,1.0,1.0*30
$GPRMC,133104.893,A,4855.497,N,00910.879,E,019.4,108.6,270617,000.0,W*72
$GPGGA,133105.893,4855.495,N,00910.886,E,1,12,1.0,0.0,M,0.0,M,,*63
$GPGSA,A,3,01,02,03,04,05,06,07,08,09,10,11,12,1.0,1.0,1.0*30
$GPRMC,133105.893,A,4855.495,N,00910.886,E,019.4,108.6,270617,000.0,W*71
$GPGGA,133106.893,4855.492,N,00910.893,E,1,12,1.0,0.0,M,0.0,M,,*63
$GPGSA,A,3,01,02,03,04,05,06,07,08,09,10,11,12,1.0,1.0,1.0*30
$GPRMC,133106.893,A,4855.492,N,00910.893,E,019.4,108.6,270617,000.0,W*71
$GPGGA,133107.893,4855.490,N,00910.901,E,1,12,1.0,0.0,M,0.0,M,,*6A
$GPGSA,A,3,01,02,03,04,05,06,07,08,09,10,11,12,1.0,1.0,1.0*30
$GPRMC,133107.893,A,4855.490,N,00910.901,E,019.4,108.6,270617,000.0,W*78
$GPGGA,133108.893,4855.487,N,00910.908,E,1,12,1.0,0.0,M,0.0,M,,*6A
$GPGSA,A,3,01,02,03,04,05,06,07,08,09,10,11,12,1.0,1.0,1.0*30
$GPRMC,133108.893,A,4855.487,N,00910.908,E,019.4,108.6,270617,000.0,W*78
$GPGGA,133109.893,4855.485,N,00910.915,E,1,12,1.0,0.0,M,0.0,M,,*65
$GPGSA,A,3,01,02,03,04,05,06,07,08,09,10,11,12,1.0,1.0,1.0*30
$GPRMC,133109.893,A,4855.485,N,00910.915,E,019.4,108.6,270617,000.0,W*77
$GPGGA,133110.893,4855.482,N,00910.922,E,1,12,1.0,0.0,M,0.0,M,,*6E
$GPGSA,A,3,01,02,03,04,05,06,07,08,09,10,11,12,1.0,1.0,1.0*30
$GPRMC,133110.893,A,4855.482,N,00910.922,E,019.4,108.6,270617,000.0,W*7C
$GPGGA,133111.893,4855.480,N,00910.930,E,1,12,1.0,0.0,M,0.0,M,,*6E
$GPGSA,A,3,01,02,03,04,05,06,07,08,09,10,11,12,1.0,1.0,1.0*30
$GPRMC,133111.893,A,4855.480,N,00910.930,E,019.4,108.6,270617,000.0,W*7C
$GPGGA,133112.893,4855.477,N,00910.937,E,1,12,1.0,0.0,M,0.0,M,,*62
$GPGSA,A,3,01,02,03,04,05,06,07,08,09,10,11,12,1.0,1.0,1.0*30
$GPRMC,133112.893,A,4855.477,N,00910.937,E,019.4,108.6,270617,000.0,W*70
$GPGGA,133113.893,4855.475,N,00910.944,E,1,12,1.0,0.0,M,0.0,M,,*65
$GPGSA,A,3,01,02,03,04,05,06,07,08,09,10,11,12,1.0,1.0,1.0*30
$GPRMC,133113.893,A,4855.475,N,00910.944,E,019.4,108.6,270617,000.0,W*77
$GPGGA,133114.893,4855.473,N,00910.952,E,1,12,1.0,0.0,M,0.0,M,,*63
$GPGSA,A,3,01,02,03,04,05,06,07,08,09,10,11,12,1.0,1.0,1.0*30
$GPRMC,133114.893,A,4855.473,N,00910.952,E,019.4,108.6,270617,000.0,W*71
$GPGGA,133115.893,4855.470,N,00910.959,E,1,12,1.0,0.0,M,0.0,M,,*6A
$GPGSA,A,3,01,02,03,04,05,06,07,08,09,10,11,12,1.0,1.0,1.0*30
$GPRMC,133115.893,A,4855.470,N,00910.959,E,019.4,108.6,270617,000.0,W*78
$GPGGA,133116.893,4855.468,N,00910.966,E,1,12,1.0,0.0,M,0.0,M,,*6C
$GPGSA,A,3,01,02,03,04,05,06,07,08,09,10,11,12,1.0,1.0,1.0*30
$GPRMC,133116.893,A,4855.468,N,00910.966,E,019.4,108.6,270617,000.0,W*7E
$GPGGA,133117.893,4855.465,N,00910.974,E,1,12,1.0,0.0,M,0.0,M,,*63
$GPGSA,A,3,01,02,03,04,05,06,07,08,09,10,11,12,1.0,1.0,1.0*30
$GPRMC,133117.893,A,4855.465,N,00910.974,E,019.4,108.6,270617,000.0,W*71
$GPGGA,133118.893,4855.463,N,00910.981,E,1,12,1.0,0.0,M,0.0,M,,*60
$GPGSA,A,3,01,02,03,04,05,06,07,08,09,10,11,12,1.0,1.0,1.0*30
$GPRMC,133118.893,A,4855.463,N,00910.981,E,019.4,108.6,270617,000.0,W*72
$GPGGA,133119.893,4855.460,N,00910.988,E,1,12,1.0,0.0,M,0.0,M,,*6B
$GPGSA,A,3,01,02,03,04,05,06,07,08,09,10,11,12,1.0,1.0,1.0*30
$GPRMC,133119.893,A,4855.460,N,00910.988,E,019.4,108.6,270617,000.0,W*79
$GPGGA,133120.893,4855.458,N,00910.996,E,1,12,1.0,0.0,M,0.0,M,,*65
$GPGSA,A,3,01,02,03,04,05,06,07,08,09,10,11,12,1.0,1.0,1.0*30
$GPRMC,133120.893,A,4855.458,N,00910.996,E,019.4,108.6,270617,000.0,W*77
$GPGGA,133121.893,4855.455,N,00911.003,E,1,12,1.0,0.0,M,0.0,M,,*6D
$GPGSA,A,3,01,02,03,04,05,06,07,08,09,10,11,12,1.0,1.0,1.0*30
$GPRMC,133121.893,A,4855.455,N,00911.003,E,019.4,108.6,270617,000.0,W*7F
$GPGGA,133122.893,4855.453,N,00911.010,E,1,12,1.0,0.0,M,0.0,M,,*6A
$GPGSA,A,3,01,02,03,04,05,06,07,08,09,10,11,12,1.0,1.0,1.0*30
$GPRMC,133122.893,A,4855.453,N,00911.010,E,019.4,108.6,270617,000.0,W*78
$GPGGA,133123.893,4855.450,N,00911.017,E,1,12,1.0,0.0,M,0.0,M,,*6F
$GPGSA,A,3,01,02,03,04,05,06,07,08,09,10,11,12,1.0,1.0,1.0*30
$GPRMC,133123.893,A,4855.450,N,00911.017,E,019.4,108.6,270617,000.0,W*7D
$GPGGA,133124.893,4855.448,N,00911.025,E,1,12,1.0,0.0,M,0.0,M,,*60
$GPGSA,A,3,01,02,03,04,05,06,07,08,09,10,11,12,1.0,1.0,1.0*30
$GPRMC,133124.893,A,4855.448,N,00911.025,E,019.4,108.6,270617,000.0,W*72
$GPGGA,133125.893,4855.445,N,00911.032,E,1,12,1.0,0.0,M,0.0,M,,*6A
$GPGSA,A,3,01,02,03,04,05,06,07,08,09,10,11,12,1.0,1.0,1.0*30
$GPRMC,133125.893,A,4855.445,N,00911.032,E,019.4,108.6,270617,000.0,W*78
$GPGGA,133126.893,4855.443,N,00911.039,E,1,12,1.0,0.0,M,0.0,M,,*64
$GPGSA,A,3,01,02,03,04,05,06,07,08,09,10,11,12,1.0,1.0,1.0*30
$GPRMC,133126.893,A,4855.443,N,00911.039,E,019.4,108.6,270617,000.0,W*76
$GPGGA,133127.893,4855.441,N,00911.047,E,1,12,1.0,0.0,M,0.0,M,,*6E
$GPGSA,A,3,01,02,03,04,05,06,07,08,09,10,11,12,1.0,1.0,1.0*30
$GPRMC,133127.893,A,4855.441,N,00911.047,E,019.4,108.6,270617,000.0,W*7C
$GPGGA,133128.893,4855.438,N,00911.054,E,1,12,1.0,0.0,M,0.0,M,,*6D
$GPGSA,A,3,01,02,03,04,05,06,07,08,09,10,11,12,1.0,1.0,1.0*30
$GPRMC,133128.893,A,4855.438,N,00911.054,E,019.4,108.6,270617,000.0,W*7F
$GPGGA,133129.893,4855.436,N,00911.061,E,1,12,1.0,0.0,M,0.0,M,,*64
$GPGSA,A,3,01,02,03,04,05,06,07,08,09,10,11,12,1.0,1.0,1.0*30
$GPRMC,133129.893,A,4855.436,N,00911.061,E,019.4,108.6,270617,000.0,W*76
$GPGGA,133130.893,4855.433,N,00911.069,E,1,12,1.0,0.0,M,0.0,M,,*61
$GPGSA,A,3,01,02,03,04,05,06,07,08,09,10,11,12,1.0,1.0,1.0*30
$GPRMC,133130.893,A,4855.433,N,00911.069,E,019.4,108.6,270617,000.0,W*73
$GPGGA,133131.893,4855.431,N,00911.076,E,1,12,1.0,0.0,M,0.0,M,,*6C
$GPGSA,A,3,01,02,03,04,05,06,07,08,09,10,11,12,1.0,1.0,1.0*30
$GPRMC,133131.893,A,4855.431,N,00911.076,E,019.4,108.6,270617,000.0,W*7E
$GPGGA,133132.893,4855.428,N,00911.083,E,1,12,1.0,0.0,M,0.0,M,,*6D
$GPGSA,A,3,01,02,03,04,05,06,07,08,09,10,11,12,1.0,1.0,1.0*30
$GPRMC,133132.893,A,4855.428,N,00911.083,E,019.4,108.6,270617,000.0,W*7F
$GPGGA,133133.893,4855.426,N,00911.091,E,1,12,1.0,0.0,M,0.0,M,,*61
$GPGSA,A,3,01,02,03,04,05,06,07,08,09,10,11,12,1.0,1.0,1.0*30
$GPRMC,133133.893,A,4855.426,N,00911.091,E,019.4,130.6,270617,000.0,W*78
$GPGGA,133134.893,4855.422,N,00911.096,E,1,12,1.0,0.0,M,0.0,M,,*65
$GPGSA,A,3,01,02,03,04,05,06,07,08,09,10,11,12,1.0,1.0,1.0*30
$GPRMC,133134.893,A,4855.422,N,00911.096,E,019.4,130.6,270617,000.0,W*7C
$GPGGA,133135.893,4855.417,N,00911.101,E,1,12,1.0,0.0,M,0.0,M,,*6D
$GPGSA,A,3,01,02,03,04,05,06,07,08,09,10,11,12,1.0,1.0,1.0*30
$GPRMC,133135.893,A,4855.417,N,00911.101,E,019.4,130.6,270617,000.0,W*74
$GPGGA,133136.893,4855.413,N,00911.106,E,1,12,1.0,0.0,M,0.0,M,,*6D
$GPGSA,A,3,01,02,03,04,05,06,07,08,09,10,11,12,1.0,1.0,1.0*30
$GPRMC,133136.893,A,4855.413,N,00911.106,E,019.4,130.6,270617,000.0,W*74
$GPGGA,133137.893,4855.409,N,00911.111,E,1,12,1.0,0.0,M,0.0,M,,*61
$GPGSA,A,3,01,02,03,04,05,06,07,08,09,10,11,12,1.0,1.0,1.0*30
$GPRMC,133137.893,A,4855.409,N,00911.111,E,019.4,130.6,270617,000.0,W*78
$GPGGA,133138.893,4855.404,N,00911.116,E,1,12,1.0,0.0,M,0.0,M,,*64
$GPGSA,A,3,01,02,03,04,05,06,07,08,09,10,11,12,1.0,1.0,1.0*30
$GPRMC,133138.893,A,4855.404,N,00911.116,E,019.4,130.6,270617,000.0,W*7D
$GPGGA,133139.893,4855.400,N,00911.121,E,1,12,1.0,0.0,M,0.0,M,,*65
$GPGSA,A,3,01,02,03,04,05,06,07,08,09,10,11,12,1.0,1.0,1.0*30
$GPRMC,133139.893,A,4855.400,N,00911.121,E,019.4,130.6,270617,000.0,W*7C
$GPGGA,133140.893,4855.396,N,00911.126,E,1,12,1.0,0.0,M,0.0,M,,*64
$GPGSA,A,3,01,02,03,04,05,06,07,08,09,10,11,12,1.0,1.0,1.0*30
$GPRMC,133140.893,A,4855.396,N,00911.126,E,019.4,130.6,270617,000.0,W*7D
$GPGGA,133141.893,4855.392,N,00911.131,E,1,12,1.0,0.0,M,0.0,M,,*67
$GPGSA,A,3,01,02,03,04,05,06,07,08,09,10,11,12,1.0,1.0,1.0*30
$GPRMC,133141.893,A,4855.392,N,00911.131,E,019.4,130.6,270617,000.0,W*7E
$GPGGA,133142.893,4855.387,N,00911.136,E,1,12,1.0,0.0,M,0.0,M,,*67
$GPGSA,A,3,01,02,03,04,05,06,07,08,09,10,11,12,1.0,1.0,1.0*30
$GPRMC,133142.893,A,4855.387,N,00911.136,E,019.4,130.6,270617,000.0,W*7E
$GPGGA,133143.893,4855.383,N,00911.141,E,1,12,1.0,0.0,M,0.0,M,,*62
$GPGSA,A,3,01,02,03,04,05,06,07,08,09,10,11,12,1.0,1.0,1.0*30
$GPRMC,133143.893,A,4855.383,N,00911.141,E,019.4,130.6,270617,000.0,W*7B
$GPGGA,133144.893,4855.379,N,00911.146,E,1,12,1.0,0.0,M,0.0,M,,*67
$GPGSA,A,3,01,02,03,04,05,06,07,08,09,10,11,12,1.0,1.0,1.0*30
$GPRMC,133144.893,A,4855.379,N,00911.146,E,019.4,130.6,270617,000.0,W*7E
$GPGGA,133145.893,4855.375,N,00911.151,E,1,12,1.0,0.0,M,0.0,M,,*6C
$GPGSA,A,3,01,02,03,04,05,06,07,08,09,10,11,12,1.0,1.0,1.0*30
$GPRMC,133145.893,A,4855.375,N,00911.151,E,019.4,130.6,270617,000.0,W*75
$GPGGA,133146.893,4855.370,N,00911.156,E,1,12,1.0,0.0,M,0.0,M,,*6D
$GPGSA,A,3,01,02,03,04,05,06,07,08,09,10,11,12,1.0,1.0,1.0*30
$GPRMC,133146.893,A,4855.370,N,00911.156,E,019.4,130.6,270617,000.0,W*74
$GPGGA,133147.893,4855.366,N,00911.161,E,1,12,1.0,0.0,M,0.0,M,,*6F
$GPGSA,A,3,01,02,03,04,05,06,07,08,09,10,11,12,1.0,1.0,1.0*30
$GPRMC,133147.893,A,4855.366,N,00911.161,E,019.4,130.6,270617,000.0,W*76
$GPGGA,133148.893,4855.362,N,00911.166,E,1,12,1.0,0.0,M,0.0,M,,*63
$GPGSA,A,3,01,02,03,04,05,06,07,08,09,10,11,12,1.0,1.0,1.0*30
$GPRMC,133148.893,A,4855.362,N,00911.166,E,019.4,130.6,270617,000.0,W*7A
$GPGGA,133149.893,4855.357,N,00911.171,E,1,12,1.0,0.0,M,0.0,M,,*62
$GPGSA,A,3,01,02,03,04,05,06,07,08,09,10,11,12,1.0,1.0,1.0*30
$GPRMC,133149.893,A,4855.357,N,00911.171,E,019.4,130.6,270617,000.0,W*7B
$GPGGA,133150.893,4855.353,N,00911.176,E,1,12,1.0,0.0,M,0.0,M,,*69
$GPGSA,A,3,01,02,03,04,05,06,07,08,09,10,11,12,1.0,1.0,1.0*30
$GPRMC,133150.893,A,4855.353,N,00911.176,E,019.4,130.6,270617,000.0,W*70
$GPGGA,133151.893,4855.349,N,00911.181,E,1,12,1.0,0.0,M,0.0,M,,*6B
$GPGSA,A,3,01,02,03,04,05,06,07,08,09,10,11,12,1.0,1.0,1.0*30
$GPRMC,133151.893,A,4855.349,N,00911.181,E,019.4,130.6,270617,000.0,W*72
$GPGGA,133152.893,4855.345,N,00911.186,E,1,12,1.0,0.0,M,0.0,M,,*63
$GPGSA,A,3,01,02,03,04,05,06,07,08,09,10,11,12,1.0,1.0,1.0*30
$GPRMC,133152.893,A,4855.345,N,00911.186,E,019.4,135.9,270617,000.0,W*70
$GPGGA,133153.893,4855.340,N,00911.190,E,1,12,1.0,0.0,M,0.0,M,,*60
$GPGSA,A,3,01,02,03,04,05,06,07,08,09,10,11,12,1.0,1.0,1.0*30
$GPRMC,133153.893,A,4855.340,N,00911.190,E,019.4,135.9,270617,000.0,W*73
$GPGGA,133154.893,4855.336,N,00911.195,E,1,12,1.0,0.0,M,0.0,M,,*63
$GPGSA,A,3,01,02,03,04,05,06,07,08,09,10,11,12,1.0,1.0,1.0*30
$GPRMC,133154.893,A,4855.336,N,00911.195,E,019.4,135.9,270617,000.0,W*70
$GPGGA,133155.893,4855.331,N,00911.199,E,1,12,1.0,0.0,M,0.0,M,,*69
$GPGSA,A,3,01,02,03,04,05,06,07,08,09,10,11,12,1.0,1.0,1.0*30
$GPRMC,133155.893,A,4855.331,N,00911.199,E,019.4,135.9,270617,000.0,W*7A
$GPGGA,133156.893,4855.326,N,00911.204,E,1,12,1.0,0.0,M,0.0,M,,*6B
$GPGSA,A,3,01,02,03,04,05,06,07,08,09,10,11,12,1.0,1.0,1.0*30
$GPRMC,133156.893,A,4855.326,N,00911.204,E,019.4,135.9,270617,000.0,W*78
$GPGGA,133157.893,4855.322,N,00911.208,E,1,12,1.0,0.0,M,0.0,M,,*62
$GPGSA,A,3,01,02,03,04,05,06,07,08,09,10,11,12,1.0,1.0,1.0*30
$GPRMC,133157.893,A,4855.322,N,00911.208,E,019.4,135.9,270617,000.0,W*71
$GPGGA,133158.893,4855.317,N,00911.212,E,1,12,1.0,0.0,M,0.0,M,,*60
$GPGSA,A,3,01,02,03,04,05,06,07,08,09,10,11,12,1.0,1.0,1.0*30
$GPRMC,133158.893,A,4855.317,N,00911.212,E,019.4,135.9,270617,000.0,W*73
$GPGGA,133159.893,4855.313,N,00911.217,E,1,12,1.0,0.0,M,0.0,M,,*60
$GPGSA,A,3,01,02,03,04,05,06,07,08,09,10,11,12,1.0,1.0,1.0*30
$GPRMC,133159.893,A,4855.313,N,00911.217,E,019.4,135.9,270617,000.0,W*73
$GPGGA,133200.893,4855.308,N,00911.221,E,1,12,1.0,0.0,M,0.0,M,,*60
$GPGSA,A,3,01,02,03,04,05,06,07,08,09,10,11,12,1.0,1.0,1.0*30
$GPRMC,133200.893,A,4855.308,N,00911.221,E,019.4,135.9,270617,000.0,W*73
$GPGGA,133201.893,4855.304,N,00911.226,E,1,12,1.0,0.0,M,0.0,M,,*6A
$GPGSA,A,3,01,02,03,04,05,06,07,08,09,10,11,12,1.0,1.0,1.0*30
$GPRMC,133201.893,A,4855.304,N,00911.226,E,019.4,135.9,270617,000.0,W*79
$GPGGA,133202.893,4855.299,N,00911.230,E,1,12,1.0,0.0,M,0.0,M,,*6B
$GPGSA,A,3,01,02,03,04,05,06,07,08,09,10,11,12,1.0,1.0,1.0*30
$GPRMC,133202.893,A,4855.299,N,00911.230,E,019.4,135.9,270617,000.0,W*78
$GPGGA,133203.893,4855.295,N,00911.234,E,1,12,1.0,0.0,M,0.0,M,,*62
$GPGSA,A,3,01,02,03,04,05,06,07,08,09,10,11,12,1.0,1.0,1.0*30
$GPRMC,133203.893,A,4855.295,N,00911.234,E,019.4,135.9,270617,000.0,W*71
$GPGGA,133204.893,4855.290,N,00911.239,E,1,12,1.0,0.0,M,0.0,M,,*6D
$GPGSA,A,3,01,02,03,04,05,06,07,08,09,10,11,12,1.0,1.0,1.0*30
$GPRMC,133204.893,A,4855.290,N,00911.239,E,019.4,135.9,270617,000.0,W*7E
$GPGGA,133205.893,4855.286,N,00911.243,E,1,12,1.0,0.0,M,0.0,M,,*66
$GPGSA,A,3,01,02,03,04,05,06,07,08,09,10,11,12,1.0,1.0,1.0*30
$GPRMC,133205.893,A,4855.286,N,00911.243,E,019.4,135.9,270617,000.0,W*75
$GPGGA,133206.893,4855.281,N,00911.248,E,1,12,1.0,0.0,M,0.0,M,,*69
$GPGSA,A,3,01,02,03,04,05,06,07,08,09,10,11,12,1.0,1.0,1.0*30
$GPRMC,133206.893,A,4855.281,N,00911.248,E,019.4,135.9,270617,000.0,W*7A
$GPGGA,133207.893,4855.276,N,00911.252,E,1,12,1.0,0.0,M,0.0,M,,*6B
$GPGSA,A,3,01,02,03,04,05,06,07,08,09,10,11,12,1.0,1.0,1.0*30
$GPRMC,133207.893,A,4855.276,N,00911.252,E,019.4,135.9,270617,000.0,W*78
$GPGGA,133208.893,4855.272,N,00911.257,E,1,12,1.0,0.0,M,0.0,M,,*65
$GPGSA,A,3,01,02,03,04,05,06,07,08,09,10,11,12,1.0,1.0,1.0*30
$GPRMC,133208.893,A,4855.272,N,00911.257,E,019.4,144.1,270617,000.0,W*78
$GPGGA,133209.893,4855.267,N,00911.260,E,1,12,1.0,0.0,M,0.0,M,,*64
$GPGSA,A,3,01,02,03,04,05,06,07,08,09,10,11,12,1.0,1.0,1.0*30
$GPRMC,133209.893,A,4855.267,N,00911.260,E,019.4,144.1,270617,000.0,W*79
$GPGGA,133210.893,4855.262,N,00911.264,E,1,12,1.0,0.0,M,0.0,M,,*6D
$GPGSA,A,3,01,02,03,04,05,06,07,08,09,10,11,12,1.0,1.0,1.0*30
$GPRMC,133210.893,A,4855.262,N,00911.264,E,019.4,144.1,270617,000.0,W*70
$GPGGA,133211.893,4855.257,N,00911.267,E,1,12,1.0,0.0,M,0.0,M,,*69
$GPGSA,A,3,01,02,03,04,05,06,07,08,09,10,11,12,1.0,1.0,1.0*30
$GPRMC,133211.893,A,4855.257,N,00911.267,E,019.4,144.1,270617,000.0,W*74
$GPGGA,133212.893,4855.252,N,00911.271,E,1,12,1.0,0.0,M,0.0,M,,*68
$GPGSA,A,3,01,02,03,04,05,06,07,08,09,10,11,12,1.0,1.0,1.0*30
$GPRMC,133212.893,A,4855.252,N,00911.271,E,019.4,144.1,270617,000.0,W*75
$GPGGA,133213.893,4855.248,N,00911.274,E,1,12,1.0,0.0,M,0.0,M,,*67
$GPGSA,A,3,01,02,03,04,05,06,07,08,09,10,11,12,1.0,1.0,1.0*30
$GPRMC,133213.893,A,4855.248,N,00911.274,E,019.4,144.1,270617,000.0,W*7A
$GPGGA,133214.893,4855.243,N,00911.278,E,1,12,1.0,0.0,M,0.0,M,,*67
$GPGSA,A,3,01,02,03,04,05,06,07,08,09,10,11,12,1.0,1.0,1.0*30
$GPRMC,133214.893,A,4855.243,N,00911.278,E,019.4,144.1,270617,000.0,W*7A
$GPGGA,133215.893,4855.238,N,00911.281,E,1,12,1.0,0.0,M,0.0,M,,*6C
$GPGSA,A,3,01,02,03,04,05,06,07,08,09,10,11,12,1.0,1.0,1.0*30
$GPRMC,133215.893,A,4855.238,N,00911.281,E,019.4,144.1,270617,000.0,W*71
$GPGGA,133216.893,4855.233,N,00911.285,E,1,12,1.0,0.0,M,0.0,M,,*60
$GPGSA,A,3,01,02,03,04,05,06,07,08,09,10,11,12,1.0,1.0,1.0*30
$GPRMC,133216.893,A,4855.233,N,00911.285,E,019.4,144.1,270617,000.0,W*7D
$GPGGA,133217.893,4855.228,N,00911.288,E,1,12,1.0,0.0,M,0.0,M,,*66
$GPGSA,A,3,01,02,03,04,05,06,07,08,09,10,11,12,1.0,1.0,1.0*30
$GPRMC,133217.893,A,4855.228,N,00911.288,E,019.4,144.1,270617,000.0,W*7B
$GPGGA,133218.893,4855.223,N,00911.292,E,1,12,1.0,0.0,M,0.0,M,,*69
$GPGSA,A,3,01,02,03,04,05,06,07,08,09,10,11,12,1.0,1.0,1.0*30
$GPRMC,133218.893,A,4855.223,N,00911.292,E,019.4,144.1,270617,000.0,W*74
$GPGGA,133219.893,4855.218,N,00911.296,E,1,12,1.0,0.0,M,0.0,M,,*64
$GPGSA,A,3,01,02,03,04,05,06,07,08,09,10,11,12,1.0,1.0,1.0*30
$GPRMC,133219.893,A,4855.218,N,00911.296,E,019.4,144.1,270617,000.0,W*79
$GPGGA,133220.893,4855.213,N,00911.299,E,1,12,1.0,0.0,M,0.0,M,,*6A
$GPGSA,A,3,01,02,03,04,05,06,07,08,09,10,11,12,1.0,1.0,1.0*30
$GPRMC,133220.893,A,4855.213,N,00911.299,E,019.4,144.1,270617,000.0,W*77
$GPGGA,133221.893,4855.209,N,00911.303,E,1,12,1.0,0.0,M,0.0,M,,*62
$GPGSA,A,3,01,02,03,04,05,06,07,08,09,10,11,12,1.0,1.0,1.0*30
$GPRMC,133221.893,A,4855.209,N,00911.303,E,019.4,144.1,270617,000.0,W*7F
$GPGGA,133222.893,4855.204,N,00911.306,E,1,12,1.0,0.0,M,0.0,M,,*69
$GPGSA,A,3,01,02,03,04,05,06,07,08,09,10,11,12,1.0,1.0,1.0*30
$GPRMC,133222.893,A,4855.204,N,00911.306,E,019.4,144.1,270617,000.0,W*74
$GPGGA,133223.893,4855.199,N,00911.310,E,1,12,1.0,0.0,M,0.0,M,,*68
$GPGSA,A,3,01,02,03,04,05,06,07,08,09,10,11,12,1.0,1.0,1.0*30
$GPRMC,133223.893,A,4855.199,N,00911.310,E,019.4,144.1,270617,000.0,W*75
$GPGGA,133224.893,4855.194,N,00911.313,E,1,12,1.0,0.0,M,0.0,M,,*61
$GPGSA,A,3,01,02,03,04,05,06,07,08,09,10,11,12,1.0,1.0,1.0*30
$GPRMC,133224.893,A,4855.194,N,00911.313,E,019.4,144.1,270617,000.0,W*7C
$GPGGA,133225.893,4855.189,N,00911.317,E,1,12,1.0,0.0,M,0.0,M,,*68
$GPGSA,A,3,01,02,03,04,05,06,07,08,09,10,11,12,1.0,1.0,1.0*30
$GPRMC,133225.893,A,4855.189,N,00911.317,E,019.4,144.1,270617,000.0,W*75
$GPGGA,133226.893,4855.184,N,00911.320,E,1,12,1.0,0.0,M,0.0,M,,*62
$GPGSA,A,3,01,02,03,04,05,06,07,08,09,10,11,12,1.0,1.0,1.0*30
$GPRMC,133226.893,A,4855.184,N,00911.320,E,019.4,144.1,270617,000.0,W*7F
$GPGGA,133227.893,4855.179,N,00911.324,E,1,12,1.0,0.0,M,0.0,M,,*65
$GPGSA,A,3,01,02,03,04,05,06,07,08,09,10,11,12,1.0,1.0,1.0*30
$GPRMC,133227.893,A,4855.179,N,00911.324,E,019.4,144.1,270617,000.0,W*78
$GPGGA,133228.893,4855.174,N,00911.327,E,1,12,1.0,0.0,M,0.0,M,,*64
$GPGSA,A,3,01,02,03,04,05,06,07,08,09,10,11,12,1.0,1.0,1.0*30
$GPRMC,133228.893,A,4855.174,N,00911.327,E,019.4,144.1,270617,000.0,W*79
$GPGGA,133229.893,4855.170,N,00911.331,E,1,12,1.0,0.0,M,0.0,M,,*66
$GPGSA,A,3,01,02,03,04,05,06,07,08,09,10,11,12,1.0,1.0,1.0*30
$GPRMC,133229.893,A,4855.170,N,00911.331,E,019.4,144.1,270617,000.0,W*7B
$GPGGA,133230.893,4855.165,N,00911.334,E,1,12,1.0,0.0,M,0.0,M,,*6F
$GPGSA,A,3,01,02,03,04,05,06,07,08,09,10,11,12,1.0,1.0,1.0*30
$GPRMC,133230.893,A,4855.165,N,00911.334,E,019.4,144.1,270617,000.0,W*72
$GPGGA,133231.893,4855.160,N,00911.338,E,1,12,1.0,0.0,M,0.0,M,,*67
$GPGSA,A,3,01,02,03,04,05,06,07,08,09,10,11,12,1.0,1.0,1.0*30
$GPRMC,133231.893,A,4855.160,N,00911.338,E,019.4,144.1,270617,000.0,W*7A
$GPGGA,133232.893,4855.155,N,00911.342,E,1,12,1.0,0.0,M,0.0,M,,*6F
$GPGSA,A,3,01,02,03,04,05,06,07,08,09,10,11,12,1.0,1.0,1.0*30
$GPRMC,133232.893,A,4855.155,N,00911.342,E,019.4,144.1,270617,000.0,W*72
$GPGGA,133233.893,4855.150,N,00911.345,E,1,12,1.0,0.0,M,0.0,M,,*6C
$GPGSA,A,3,01,02,03,04,05,06,07,08,09,10,11,12,1.0,1.0,1.0*30
$GPRMC,133233.893,A,4855.150,N,00911.345,E,019.4,144.1,270617,000.0,W*71
$GPGGA,133234.893,4855.145,N,00911.349,E,1,12,1.0,0.0,M,0.0,M,,*63
$GPGSA,A,3,01,02,03,04,05,06,07,08,09,10,11,12,1.0,1.0,1.0*30
$GPRMC,133234.893,A,4855.145,N,00911.349,E,019.4,144.1,270617,000.0,W*7E
$GPGGA,133235.893,4855.140,N,00911.352,E,1,12,1.0,0.0,M,0.0,M,,*6D
$GPGSA,A,3,01,02,03,04,05,06,07,08,09,10,11,12,1.0,1.0,1.0*30
$GPRMC,133235.893,A,4855.140,N,00911.352,E,019.4,179.7,270617,000.0,W*78
$GPGGA,133236.893,4855.135,N,00911.352,E,1,12,1.0,0.0,M,0.0,M,,*6C
$GPGSA,A,3,01,02,03,04,05,06,07,08,09,10,11,12,1.0,1.0,1.0*30
$GPRMC,133236.893,A,4855.135,N,00911.352,E,019.4,179.7,270617,000.0,W*79
$GPGGA,133237.893,4855.130,N,00911.352,E,1,12,1.0,0.0,M,0.0,M,,*68
$GPGSA,A,3,01,02,03,04,05,06,07,08,09,10,11,12,1.0,1.0,1.0*30
$GPRMC,133237.893,A,4855.130,N,00911.352,E,019.4,179.7,270617,000.0,W*7D
$GPGGA,133238.893,4855.124,N,00911.352,E,1,12,1.0,0.0,M,0.0,M,,*62
$GPGSA,A,3,01,02,03,04,05,06,07,08,09,10,11,12,1.0,1.0,1.0*30
$GPRMC,133238.893,A,4855.124,N,00911.352,E,019.4,179.7,270617,000.0,W*77
$GPGGA,133239.893,4855.119,N,00911.352,E,1,12,1.0,0.0,M,0.0,M,,*6D
$GPGSA,A,3,01,02,03,04,05,06,07,08,09,10,11,12,1.0,1.0,1.0*30
$GPRMC,133239.893,A,4855.119,N,00911.352,E,019.4,179.7,270617,000.0,W*78
$GPGGA,133240.893,4855.113,N,00911.352,E,1,12,1.0,0.0,M,0.0,M,,*69
$GPGSA,A,3,01,02,03,04,05,06,07,08,09,10,11,12,1.0,1.0,1.0*30
$GPRMC,133240.893,A,4855.113,N,00911.352,E,019.4,179.7,270617,000.0,W*7C
$GPGGA,133241.893,4855.108,N,00911.352,E,1,12,1.0,0.0,M,0.0,M,,*62
$GPGSA,A,3,01,02,03,04,05,06,07,08,09,10,11,12,1.0,1.0,1.0*30
$GPRMC,133241.893,A,4855.108,N,00911.352,E,019.4,210.0,270617,000.0,W*7C
$GPGGA,133242.893,4855.103,N,00911.349,E,1,12,1.0,0.0,M,0.0,M,,*60
$GPGSA,A,3,01,02,03,04,05,06,07,08,09,10,11,12,1.0,1.0,1.0*30
$GPRMC,133242.893,A,4855.103,N,00911.349,E,019.4,210.0,270617,000.0,W*7E
$GPGGA,133243.893,4855.098,N,00911.346,E,1,12,1.0,0.0,M,0.0,M,,*6D
$GPGSA,A,3,01,02,03,04,05,06,07,08,09,10,11,12,1.0,1.0,1.0*30
$GPRMC,133243.893,A,4855.098,N,00911.346,E,019.4,210.0,270617,000.0,W*73
$GPGGA,133244.893,4855.093,N,00911.344,E,1,12,1.0,0.0,M,0.0,M,,*63
$GPGSA,A,3,01,02,03,04,05,06,07,08,09,10,11,12,1.0,1.0,1.0*30
$GPRMC,133244.893,A,4855.093,N,00911.344,E,019.4,210.0,270617,000.0,W*7D
$GPGGA,133245.893,4855.088,N,00911.341,E,1,12,1.0,0.0,M,0.0,M,,*6D
$GPGSA,A,3,01,02,03,04,05,06,07,08,09,10,11,12,1.0,1.0,1.0*30
$GPRMC,133245.893,A,4855.088,N,00911.341,E,019.4,210.0,270617,000.0,W*73
$GPGGA,133246.893,4855.083,N,00911.338,E,1,12,1.0,0.0,M,0.0,M,,*6B
$GPGSA,A,3,01,02,03,04,05,06,07,08,09,10,11,12,1.0,1.0,1.0*30
$GPRMC,133246.893,A,4855.083,N,00911.338,E,019.4,210.0,270617,000.0,W*75
$GPGGA,133247.893,4855.078,N,00911.335,E,1,12,1.0,0.0,M,0.0,M,,*63
$GPGSA,A,3,01,02,03,04,05,06,07,08,09,10,11,12,1.0,1.0,1.0*30
$GPRMC,133247.893,A,4855.078,N,00911.335,E,019.4,210.0,270617,000.0,W*7D
$GPGGA,133248.893,4855.073,N,00911.332,E,1,12,1.0,0.0,M,0.0,M,,*60
$GPGSA,A,3,01,02,03,04,05,06,07,08,09,10,11,12,1.0,1.0,1.0*30
$GPRMC,133248.893,A,4855.073,N,00911.332,E,019.4,236.4,270617,000.0,W*7E
$GPGGA,133249.893,4855.069,N,00911.326,E,1,12,1.0,0.0,M,0.0,M,,*6F
$GPGSA,A,3,01,02,03,04,05,06,07,08,09,10,11,12,1.0,1.0,1.0*30
$GPRMC,133249.893,A,4855.069,N,00911.326,E,019.4,236.4,270617,000.0,W*71
$GPGGA,133250.893,4855.065,N,00911.320,E,1,12,1.0,0.0,M,0.0,M,,*6D
$GPGSA,A,3,01,02,03,04,05,06,07,08,09,10,11,12,1.0,1.0,1.0*30
$GPRMC,133250.893,A,4855.065,N,00911.320,E,019.4,236.4,270617,000.0,W*73
$GPGGA,133251.893,4855.061,N,00911.314,E,1,12,1.0,0.0,M,0.0,M,,*6F
$GPGSA,A,3,01,02,03,04,05,06,07,08,09,10,11,12,1.0,1.0,1.0*30
$GPRMC,133251.893,A,4855.061,N,00911.314,E,019.4,236.4,270617,000.0,W*71
$GPGGA,133252.893,4855.057,N,00911.309,E,1,12,1.0,0.0,M,0.0,M,,*65
$GPGSA,A,3,01,02,03,04,05,06,07,08,09,10,11,12,1.0,1.0,1.0*30
$GPRMC,133252.893,A,4855.057,N,00911.309,E,019.4,236.4,270617,000.0,W*7B
$GPGGA,133253.893,4855.054,N,00911.303,E,1,12,1.0,0.0,M,0.0,M,,*6D
$GPGSA,A,3,01,02,03,04,05,06,07,08,09,10,11,12,1.0,1.0,1.0*30
$GPRMC,133253.893,A,4855.054,N,00911.303,E,019.4,236.4,270617,000.0,W*73
$GPGGA,133254.893,4855.050,N,00911.297,E,1,12,1.0,0.0,M,0.0,M,,*62
$GPGSA,A,3,01,02,03,04,05,06,07,08,09,10,11,12,1.0,1.0,1.0*30
$GPRMC,133254.893,A,4855.050,N,00911.297,E,019.4,236.4,270617,000.0,W*7C
$GPGGA,133255.893,4855.046,N,00911.291,E,1,12,1.0,0.0,M,0.0,M,,*62
$GPGSA,A,3,01,02,03,04,05,06,07,08,09,10,11,12,1.0,1.0,1.0*30
$GPRMC,133255.893,A,4855.046,N,00911.291,E,019.4,230.5,270617,000.0,W*7B
$GPGGA,133256.893,4855.042,N,00911.286,E,1,12,1.0,0.0,M,0.0,M,,*63
$GPGSA,A,3,01,02,03,04,05,06,07,08,09,10,11,12,1.0,1.0,1.0*30
$GPRMC,133256.893,A,4855.042,N,00911.286,E,019.4,230.5,270617,000.0,W*7A
$GPGGA,133257.893,4855.038,N,00911.281,E,1,12,1.0,0.0,M,0.0,M,,*68
$GPGSA,A,3,01,02,03,04,05,06,07,08,09,10,11,12,1.0,1.0,1.0*30
$GPRMC,133257.893,A,4855.038,N,00911.281,E,019.4,230.5,270617,000.0,W*71
$GPGGA,133258.893,4855.033,N,00911.276,E,1,12,1.0,0.0,M,0.0,M,,*64
$GPGSA,A,3,01,02,03,04,05,06,07,08,09,10,11,12,1.0,1.0,1.0*30
$GPRMC,133258.893,A,4855.033,N,00911.276,E,019.4,230.5,270617,000.0,W*7D
$GPGGA,133259.893,4855.029,N,00911.271,E,1,12,1.0,0.0,M,0.0,M,,*69
$GPGSA,A,3,01,02,03,04,05,06,07,08,09,10,11,12,1.0,1.0,1.0*30
$GPRMC,133259.893,A,4855.029,N,00911.271,E,019.4,230.5,270617,000.0,W*70
$GPGGA,133300.893,4855.025,N,00911.266,E,1,12,1.0,0.0,M,0.0,M,,*6E
$GPGSA,A,3,01,02,03,04,05,06,07,08,09,10,11,12,1.0,1.0,1.0*30
$GPRMC,133300.893,A,4855.025,N,00911.266,E,019.4,230.5,270617,000.0,W*77
$GPGGA,133301.893,4855.021,N,00911.261,E,1,12,1.0,0.0,M,0.0,M,,*6C
$GPGSA,A,3,01,02,03,04,05,06,07,08,09,10,11,12,1.0,1.0,1.0*30
$GPRMC,133301.893,A,4855.021,N,00911.261,E,019.4,230.5,270617,000.0,W*75
$GPGGA,133302.893,4855.016,N,00911.255,E,1,12,1.0,0.0,M,0.0,M,,*6C
$GPGSA,A,3,01,02,03,04,05,06,07,08,09,10,11,12,1.0,1.0,1.0*30
$GPRMC,133302.893,A,4855.016,N,00911.255,E,019.4,230.5,270617,000.0,W*75
$GPGGA,133303.893,4855.012,N,00911.250,E,1,12,1.0,0.0,M,0.0,M,,*6C
$GPGSA,A,3,01,02,03,04,05,06,07,08,09,10,11,12,1.0,1.0,1.0*30
$GPRMC,133303.893,A,4855.012,N,00911.250,E,019.4,230.5,270617,000.0,W*75
$GPGGA,133304.893,4855.008,N,00911.245,E,1,12,1.0,0.0,M,0.0,M,,*64
$GPGSA,A,3,01,02,03,04,05,06,07,08,09,10,11,12,1.0,1.0,1.0*30
$GPRMC,133304.893,A,4855.008,N,00911.245,E,019.4,230.5,270617,000.0,W*7D
$GPGGA,133305.893,4855.004,N,00911.240,E,1,12,1.0,0.0,M,0.0,M,,*6C
$GPGSA,A,3,01,02,03,04,05,06,07,08,09,10,11,12,1.0,1.0,1.0*30
$GPRMC,133305.893,A,4855.004,N,00911.240,E,019.4,230.5,270617,000.0,W*75
$GPGGA,133306.893,4855.000,N,00911.235,E,1,12,1.0,0.0,M,0.0,M,,*69
$GPGSA,A,3,01,02,03,04,05,06,07,08,09,10,11,12,1.0,1.0,1.0*30
$GPRMC,133306.893,A,4855.000,N,00911.235,E,019.4,230.5,270617,000.0,W*70
$GPGGA,133307.893,4854.995,N,00911.230,E,1,12,1.0,0.0,M,0.0,M,,*69
$GPGSA,A,3,01,02,03,04,05,06,07,08,09,10,11,12,1.0,1.0,1.0*30
$GPRMC,133307.893,A,4854.995,N,00911.230,E,019.4,230.5,270617,000.0,W*70
$GPGGA,133308.893,4854.991,N,00911.225,E,1,12,1.0,0.0,M,0.0,M,,*66
$GPGSA,A,3,01,02,03,04,05,06,07,08,09,10,11,12,1.0,1.0,1.0*30
$GPRMC,133308.893,A,4854.991,N,00911.225,E,019.4,230.5,270617,000.0,W*7F
$GPGGA,133309.893,4854.987,N,00911.219,E,1,12,1.0,0.0,M,0.0,M,,*6F
$GPGSA,A,3,01,02,03,04,05,06,07,08,09,10,11,12,1.0,1.0,1.0*30
$GPRMC,133309.893,A,4854.987,N,00911.219,E,019.4,230.5,270617,000.0,W*76
$GPGGA,133310.893,4854.983,N,00911.214,E,1,12,1.0,0.0,M,0.0,M,,*6E
$GPGSA,A,3,01,02,03,04,05,06,07,08,09,10,11,12,1.0,1.0,1.0*30
$GPRMC,133310.893,A,4854.983,N,00911.214,E,019.4,230.5,270617,000.0,W*77
$GPGGA,133311.893,4854.979,N,00911.209,E,1,12,1.0,0.0,M,0.0,M,,*66
$GPGSA,A,3,01,02,03,04,05,06,07,08,09,10,11,12,1.0,1.0,1.0*30
$GPRMC,133311.893,A,4854.979,N,00911.209,E,019.4,269.9,270617,000.0,W*7F
$GPGGA,133312.893,4854.979,N,00911.201,E,1,12,1.0,0.0,M,0.0,M,,*6D
$GPGSA,A,3,01,02,03,04,05,06,07,08,09,10,11,12,1.0,1.0,1.0*30
$GPRMC,133312.893,A,4854.979,N,00911.201,E,019.4,269.9,270617,000.0,W*74
$GPGGA,133313.893,4854.979,N,00911.193,E,1,12,1.0,0.0,M,0.0,M,,*64
$GPGSA,A,3,01,02,03,04,05,06,07,08,09,10,11,12,1.0,1.0,1.0*30
$GPRMC,133313.893,A,4854.979,N,00911.193,E,019.4,269.9,270617,000.0,W*7D
$GPGGA,133314.893,4854.979,N,00911.185,E,1,12,1.0,0.0,M,0.0,M,,*64
$GPGSA,A,3,01,02,03,04,05,06,07,08,09,10,11,12,1.0,1.0,1.0*30
$GPRMC,133314.893,A,4854.979,N,00911.185,E,019.4,269.9,270617,000.0,W*7D
$GPGGA,133315.893,4854.979,N,00911.176,E,1,12,1.0,0.0,M,0.0,M,,*69
$GPGSA,A,3,01,02,03,04,05,06,07,08,09,10,11,12,1.0,1.0,1.0*30
$GPRMC,133315.893,A,4854.979,N,00911.176,E,019.4,269.9,270617,000.0,W*70
$GPGGA,133316.893,4854.978,N,00911.168,E,1,12,1.0,0.0,M,0.0,M,,*64
$GPGSA,A,3,01,02,03,04,05,06,07,08,09,10,11,12,1.0,1.0,1.0*30
$GPRMC,133316.893,A,4854.978,N,00911.168,E,019.4,269.9,270617,000.0,W*7D
$GPGGA,133317.893,4854.978,N,00911.160,E,1,12,1.0,0.0,M,0.0,M,,*6D
$GPGSA,A,3,01,02,03,04,05,06,07,08,09,10,11,12,1.0,1.0,1.0*30
$GPRMC,133317.893,A,4854.978,N,00911.160,E,019.4,269.9,270617,000.0,W*74
$GPGGA,133318.893,4854.978,N,00911.152,E,1,12,1.0,0.0,M,0.0,M,,*63
$GPGSA,A,3,01,02,03,04,05,06,07,08,09,10,11,12,1.0,1.0,1.0*30
$GPRMC,133318.893,A,4854.978,N,00911.152,E,019.4,269.9,270617,000.0,W*7A
$GPGGA,133319.893,4854.978,N,00911.143,E,1,12,1.0,0.0,M,0.0,M,,*62
$GPGSA,A,3,01,02,03,04,05,06,07,08,09,10,11,12,1.0,1.0,1.0*30
$GPRMC,133319.893,A,4854.978,N,00911.143,E,019.4,269.9,270617,000.0,W*7B
$GPGGA,133320.893,4854.978,N,00911.135,E,1,12,1.0,0.0,M,0.0,M,,*69
$GPGSA,A,3,01,02,03,04,05,06,07,08,09,10,11,12,1.0,1.0,1.0*30
$GPRMC,133320.893,A,4854.978,N,00911.135,E,019.4,269.9,270617,000.0,W*70
$GPGGA,133321.893,4854.978,N,00911.127,E,1,12,1.0,0.0,M,0.0,M,,*6B
$GPGSA,A,3,01,02,03,04,05,06,07,08,09,10,11,12,1.0,1.0,1.0*30
$GPRMC,133321.893,A,4854.978,N,00911.127,E,019.4,269.9,270617,000.0,W*72
$GPGGA,133322.893,4854.978,N,00911.119,E,1,12,1.0,0.0,M,0.0,M,,*65
$GPGSA,A,3,01,02,03,04,05,06,07,08,09,10,11,12,1.0,1.0,1.0*30
$GPRMC,133322.893,A,4854.978,N,00911.119,E,019.4,269.9,270617,000.0,W*7C
$GPGGA,133323.893,4854.978,N,00911.111,E,1,12,1.0,0.0,M,0.0,M,,*6C
$GPGSA,A,3,01,02,03,04,05,06,07,08,09,10,11,12,1.0,1.0,1.0*30
$GPRMC,133323.893,A,4854.978,N,00911.111,E,019.4,269.9,270617,000.0,W*75
$GPGGA,133324.893,4854.978,N,00911.102,E,1,12,1.0,0.0,M,0.0,M,,*69
$GPGSA,A,3,01,02,03,04,05,06,07,08,09,10,11,12,1.0,1.0,1.0*30
$GPRMC,133324.893,A,4854.978,N,00911.102,E,019.4,269.9,270617,000.0,W*70
$GPGGA,133325.893,4854.978,N,00911.094,E,1,12,1.0,0.0,M,0.0,M,,*66
$GPGSA,A,3,01,02,03,04,05,06,07,08,09,10,11,12,1.0,1.0,1.0*30
$GPRMC,133325.893,A,4854.978,N,00911.094,E,019.4,269.9,270617,000.0,W*7F
$GPGGA,133326.893,4854.978,N,00911.086,E,1,12,1.0,0.0,M,0.0,M,,*66
$GPGSA,A,3,01,02,03,04,05,06,07,08,09,10,11,12,1.0,1.0,1.0*30
$GPRMC,133326.893,A,4854.978,N,00911.086,E,019.4,269.9,270617,000.0,W*7F
$GPGGA,133327.893,4854.978,N,00911.078,E,1,12,1.0,0.0,M,0.0,M,,*66
$GPGSA,A,3,01,02,03,04,05,06,07,08,09,10,11,12,1.0,1.0,1.0*30
$GPRMC,133327.893,A,4854.978,N,00911.078,E,019.4,269.9,270617,000.0,W*7F
$GPGGA,133328.893,4854.978,N,00911.070,E,1,12,1.0,0.0,M,0.0,M,,*61
$GPGSA,A,3,01,02,03,04,05,06,07,08,09,10,11,12,1.0,1.0,1.0*30
$GPRMC,133328.893,A,4854.978,N,00911.070,E,019.4,269.9,270617,000.0,W*78
$GPGGA,133329.893,4854.978,N,00911.061,E,1,12,1.0,0.0,M,0.0,M,,*60
$GPGSA,A,3,01,02,03,04,05,06,07,08,09,10,11,12,1.0,1.0,1.0*30
$GPRMC,133329.893,A,4854.978,N,00911.061,E,019.4,269.9,270617,000.0,W*79
$GPGGA,133330.893,4854.978,N,00911.053,E,1,12,1.0,0.0,M,0.0,M,,*69
$GPGSA,A,3,01,02,03,04,05,06,07,08,09,10,11,12,1.0,1.0,1.0*30
$GPRMC,133330.893,A,4854.978,N,00911.053,E,019.4,269.9,270617,000.0,W*70
$GPGGA,133331.893,4854.978,N,00911.045,E,1,12,1.0,0.0,M,0.0,M,,*6F
$GPGSA,A,3,01,02,03,04,05,06,07,08,09,10,11,12,1.0,1.0,1.0*30
$GPRMC,133331.893,A,4854.978,N,00911.045,E,019.4,269.9,270617,000.0,W*76
$GPGGA,133332.893,4854.978,N,00911.037,E,1,12,1.0,0.0,M,0.0,M,,*69
$GPGSA,A,3,01,02,03,04,05,06,07,08,09,10,11,12,1.0,1.0,1.0*30
$GPRMC,133332.893,A,4854.978,N,00911.037,E,019.4,269.9,270617,000.0,W*70
$GPGGA,133333.893,4854.978,N,00911.029,E,1,12,1.0,0.0,M,0.0,M,,*67
$GPGSA,A,3,01,02,03,04,05,06,07,08,09,10,11,12,1.0,1.0,1.0*30
$GPRMC,133333.893,A,4854.978,N,00911.029,E,019.4,269.9,270617,000.0,W*7E
$GPGGA,133334.893,4854.978,N,00911.020,E,1,12,1.0,0.0,M,0.0,M,,*69
$GPGSA,A,3,01,02,03,04,05,06,07,08,09,10,11,12,1.0,1.0,1.0*30
$GPRMC,133334.893,A,4854.978,N,00911.020,E,019.4,269.9,270617,000.0,W*70
$GPGGA,133335.893,4854.978,N,00911.012,E,1,12,1.0,0.0,M,0.0,M,,*69
$GPGSA,A,3,01,02,03,04,05,06,07,08,09,10,11,12,1.0,1.0,1.0*30
$GPRMC,133335.893,A,4854.978,N,00911.012,E,019.4,269.9,270617,000.0,W*70
$GPGGA,133336.893,4854.978,N,00911.004,E,1,12,1.0,0.0,M,0.0,M,,*6D
$GPGSA,A,3,01,02,03,04,05,06,07,08,09,10,11,12,1.0,1.0,1.0*30
$GPRMC,133336.893,A,4854.978,N,00911.004,E,019.4,269.9,270617,000.0,W*74
$GPGGA,133337.893,4854.978,N,00910.996,E,1,12,1.0,0.0,M,0.0,M,,*6F
$GPGSA,A,3,01,02,03,04,05,06,07,08,09,10,11,12,1.0,1.0,1.0*30
$GPRMC,133337.893,A,4854.978,N,00910.996,E,019.4,269.9,270617,000.0,W*76
$GPGGA,133338.893,4854.978,N,00910.987,E,1,12,1.0,0.0,M,0.0,M,,*60
$GPGSA,A,3,01,02,03,04,05,06,07,08,09,10,11,12,1.0,1.0,1.0*30
$GPRMC,133338.893,A,4854.978,N,00910.987,E,019.4,269.9,270617,000.0,W*79
$GPGGA,133339.893,4854.978,N,00910.979,E,1,12,1.0,0.0,M,0.0,M,,*60
$GPGSA,A,3,01,02,03,04,05,06,07,08,09,10,11,12,1.0,1.0,1.0*30
$GPRMC,133339.893,A,4854.978,N,00910.979,E,019.4,269.9,270617,000.0,W*79
$GPGGA,133340.893,4854.978,N,00910.971,E,1,12,1.0,0.0,M,0.0,M,,*66
$GPGSA,A,3,01,02,03,04,05,06,07,08,09,10,11,12,1.0,1.0,1.0*30
$GPRMC,133340.893,A,4854.978,N,00910.971,E,019.4,269.9,270617,000.0,W*7F
$GPGGA,133341.893,4854.978,N,00910.963,E,1,12,1.0,0.0,M,0.0,M,,*64
$GPGSA,A,3,01,02,03,04,05,06,07,08,09,10,11,12,1.0,1.0,1.0*30
$GPRMC,133341.893,A,4854.978,N,00910.963,E,019.4,269.9,270617,000.0,W*7D
$GPGGA,133342.893,4854.978,N,00910.955,E,1,12,1.0,0.0,M,0.0,M,,*62
$GPGSA,A,3,01,02,03,04,05,06,07,08,09,10,11,12,1.0,1.0,1.0*30
$GPRMC,133342.893,A,4854.978,N,00910.955,E,019.4,269.9,270617,000.0,W*7B
$GPGGA,133343.893,4854.978,N,00910.946,E,1,12,1.0,0.0,M,0.0,M,,*61
$GPGSA,A,3,01,02,03,04,05,06,07,08,09,10,11,12,1.0,1.0,1.0*30
$GPRMC,133343.893,A,4854.978,N,00910.946,E,019.4,269.9,270617,000.0,W*78
$GPGGA,133344.893,4854.978,N,00910.938,E,1,12,1.0,0.0,M,0.0,M,,*6F
$GPGSA,A,3,01,02,03,04,05,06,07,08,09,10,11,12,1.0,1.0,1.0*30
$GPRMC,133344.893,A,4854.978,N,00910.938,E,019.4,269.9,270617,000.0,W*76
$GPGGA,133345.893,4854.978,N,00910.930,E,1,12,1.0,0.0,M,0.0,M,,*66
$GPGSA,A,3,01,02,03,04,05,06,07,08,09,10,11,12,1.0,1.0,1.0*30
$GPRMC,133345.893,A,4854.978,N,00910.930,E,019.4,269.9,270617,000.0,W*7F
$GPGGA,133346.893,4854.978,N,00910.922,E,1,12,1.0,0.0,M,0.0,M,,*66
$GPGSA,A,3,01,02,03,04,05,06,07,08,09,10,11,12,1.0,1.0,1.0*30
$GPRMC,133346.893,A,4854.978,N,00910.922,E,019.4,269.9,270617,000.0,W*7F
$GPGGA,133347.893,4854.978,N,00910.914,E,1,12,1.0,0.0,M,0.0,M,,*62
$GPGSA,A,3,01,02,03,04,05,06,07,08,09,10,11,12,1.0,1.0,1.0*30
$GPRMC,133347.893,A,4854.978,N,00910.914,E,019.4,269.9,270617,000.0,W*7B
$GPGGA,133348.893,4854.978,N,00910.905,E,1,12,1.0,0.0,M,0.0,M,,*6D
$GPGSA,A,3,01,02,03,04,05,06,07,08,09,10,11,12,1.0,1.0,1.0*30
$GPRMC,133348.893,A,4854.978,N,00910.905,E,019.4,269.9,270617,000.0,W*74
$GPGGA,133349.893,4854.978,N,00910.897,E,1,12,1.0,0.0,M,0.0,M,,*66
$GPGSA,A,3,01,02,03,04,05,06,07,08,09,10,11,12,1.0,1.0,1.0*30
$GPRMC,133349.893,A,4854.978,N,00910.897,E,019.4,269.9,270617,000.0,W*7F
$GPGGA,133350.893,4854.978,N,00910.889,E,1,12,1.0,0.0,M,0.0,M,,*61
$GPGSA,A,3,01,02,03,04,05,06,07,08,09,10,11,12,1.0,1.0,1.0*30
$GPRMC,133350.893,A,4854.978,N,00910.889,E,019.4,269.9,270617,000.0,W*78
$GPGGA,133351.893,4854.978,N,00910.881,E,1,12,1.0,0.0,M,0.0,M,,*68
$GPGSA,A,3,01,02,03,04,05,06,07,08,09,10,11,12,1.0,1.0,1.0*30
$GPRMC,133351.893,A,4854.978,N,00910.881,E,019.4,269.9,270617,000.0,W*71
$GPGGA,133352.893,4854.978,N,00910.873,E,1,12,1.0,0.0,M,0.0,M,,*66
$GPGSA,A,3,01,02,03,04,05,06,07,08,09,10,11,12,1.0,1.0,1.0*30
$GPRMC,133352.893,A,4854.978,N,00910.873,E,019.4,269.9,270617,000.0,W*7F
$GPGGA,133353.893,4854.978,N,00910.864,E,1,12,1.0,0.0,M,0.0,M,,*61
$GPGSA,A,3,01,02,03,04,05,06,07,08,09,10,11,12,1.0,1.0,1.0*30
$GPRMC,133353.893,A,4854.978,N,00910.864,E,019.4,269.9,270617,000.0,W*78
$GPGGA,133354.893,4854.978,N,00910.856,E,1,12,1.0,0.0,M,0.0,M,,*67
$GPGSA,A,3,01,02,03,04,05,06,07,08,09,10,11,12,1.0,1.0,1.0*30
$GPRMC,133354.893,A,4854.978,N,00910.856,E,019.4,269.9,270617,000.0,W*7E
$GPGGA,133355.893,4854.978,N,00910.848,E,1,12,1.0,0.0,M,0.0,M,,*69
$GPGSA,A,3,01,02,03,04,05,06,07,08,09,10,11,12,1.0,1.0,1.0*30
$GPRMC,133355.893,A,4854.978,N,00910.848,E,019.4,269.9,270617,000.0,W*70
$GPGGA,133356.893,4854.978,N,00910.840,E,1,12,1.0,0.0,M,0.0,M,,*62
$GPGSA,A,3,01,02,03,04,05,06,07,08,09,10,11,12,1.0,1.0,1.0*30
$GPRMC,133356.893,A,4854.978,N,00910.840,E,019.4,269.9,270617,000.0,W*7B
$GPGGA,133357.893,4854.978,N,00910.831,E,1,12,1.0,0.0,M,0.0,M,,*65
$GPGSA,A,3,01,02,03,04,05,06,07,08,09,10,11,12,1.0,1.0,1.0*30
$GPRMC,133357.893,A,4854.978,N,00910.831,E,019.4,269.9,270617,000.0,W*7C
$GPGGA,133358.893,4854.978,N,00910.823,E,1,12,1.0,0.0,M,0.0,M,,*69
$GPGSA,A,3,01,02,03,04,05,06,07,08,09,10,11,12,1.0,1.0,1.0*30
$GPRMC,133358.893,A,4854.978,N,00910.823,E,019.4,269.9,270617,000.0,W*70
$GPGGA,133359.893,4854.978,N,00910.815,E,1,12,1.0,0.0,M,0.0,M,,*6D
$GPGSA,A,3,01,02,03,04,05,06,07,08,09,10,11,12,1.0,1.0,1.0*30
$GPRMC,133359.893,A,4854.978,N,00910.815,E,019.4,269.9,270617,000.0,W*74
$GPGGA,133400.893,4854.978,N,00910.807,E,1,12,1.0,0.0,M,0.0,M,,*65
$GPGSA,A,3,01,02,03,04,05,06,07,08,09,10,11,12,1.0,1.0,1.0*30
$GPRMC,133400.893,A,4854.978,N,00910.807,E,019.4,269.9,270617,000.0,W*7C
$GPGGA,133401.893,4854.978,N,00910.799,E,1,12,1.0,0.0,M,0.0,M,,*6C
$GPGSA,A,3,01,02,03,04,05,06,07,08,09,10,11,12,1.0,1.0,1.0*30
$GPRMC,133401.893,A,4854.978,N,00910.799,E,019.4,269.9,270617,000.0,W*75
$GPGGA,133402.893,4854.978,N,00910.790,E,1,12,1.0,0.0,M,0.0,M,,*66
$GPGSA,A,3,01,02,03,04,05,06,07,08,09,10,11,12,1.0,1.0,1.0*30
$GPRMC,133402.893,A,4854.978,N,00910.790,E,019.4,269.9,270617,000.0,W*7F
$GPGGA,133403.893,4854.978,N,00910.782,E,1,12,1.0,0.0,M,0.0,M,,*64
$GPGSA,A,3,01,02,03,04,05,06,07,08,09,10,11,12,1.0,1.0,1.0*30
$GPRMC,133403.893,A,4854.978,N,00910.782,E,019.4,269.9,270617,000.0,W*7D
$GPGGA,133404.893,4854.978,N,00910.774,E,1,12,1.0,0.0,M,0.0,M,,*6A
$GPGSA,A,3,01,02,03,04,05,06,07,08,09,10,11,12,1.0,1.0,1.0*30
$GPRMC,133404.893,A,4854.978,N,00910.774,E,019.4,269.9,270617,000.0,W*73
$GPGGA,133405.893,4854.978,N,00910.766,E,1,12,1.0,0.0,M,0.0,M,,*68
$GPGSA,A,3,01,02,03,04,05,06,07,08,09,10,11,12,1.0,1.0,1.0*30
$GPRMC,133405.893,A,4854.978,N,00910.766,E,019.4,269.9,270617,000.0,W*71
$GPGGA,133406.893,4854.978,N,00910.758,E,1,12,1.0,0.0,M,0.0,M,,*66
$GPGSA,A,3,01,02,03,04,05,06,07,08,09,10,11,12,1.0,1.0,1.0*30
$GPRMC,133406.893,A,4854.978,N,00910.758,E,019.4,269.9,270617,000.0,W*7F
$GPGGA,133407.893,4854.978,N,00910.749,E,1,12,1.0,0.0,M,0.0,M,,*67
$GPGSA,A,3,01,02,03,04,05,06,07,08,09,10,11,12,1.0,1.0,1.0*30
$GPRMC,133407.893,A,4854.978,N,00910.749,E,019.4,269.9,270617,000.0,W*7E
$GPGGA,133408.893,4854.978,N,00910.741,E,1,12,1.0,0.0,M,0.0,M,,*60
$GPGSA,A,3,01,02,03,04,05,06,07,08,09,10,11,12,1.0,1.0,1.0*30
$GPRMC,133408.893,A,4854.978,N,00910.741,E,019.4,269.9,270617,000.0,W*79
$GPGGA,133409.893,4854.978,N,00910.733,E,1,12,1.0,0.0,M,0.0,M,,*64
$GPGSA,A,3,01,02,03,04,05,06,07,08,09,10,11,12,1.0,1.0,1.0*30
$GPRMC,133409.893,A,4854.978,N,00910.733,E,019.4,269.9,270617,000.0,W*7D
$GPGGA,133410.893,4854.978,N,00910.725,E,1,12,1.0,0.0,M,0.0,M,,*6B
$GPGSA,A,3,01,02,03,04,05,06,07,08,09,10,11,12,1.0,1.0,1.0*30
$GPRMC,133410.893,A,4854.978,N,00910.725,E,019.4,269.9,270617,000.0,W*72
$GPGGA,133411.893,4854.978,N,00910.717,E,1,12,1.0,0.0,M,0.0,M,,*6B
$GPGSA,A,3,01,02,03,04,05,06,07,08,09,10,11,12,1.0,1.0,1.0*30
$GPRMC,133411.893,A,4854.978,N,00910.717,E,019.4,269.9,270617,000.0,W*72
$GPGGA,133412.893,4854.978,N,00910.708,E,1,12,1.0,0.0,M,0.0,M,,*66
$GPGSA,A,3,01,02,03,04,05,06,07,08,09,10,11,12,1.0,1.0,1.0*30
$GPRMC,133412.893,A,4854.978,N,00910.708,E,019.4,226.9,270617,000.0,W*74
$GPGGA,133413.893,4854.973,N,00910.704,E,1,12,1.0,0.0,M,0.0,M,,*60
$GPGSA,A,3,01,02,03,04,05,06,07,08,09,10,11,12,1.0,1.0,1.0*30
$GPRMC,133413.893,A,4854.973,N,00910.704,E,019.4,226.9,270617,000.0,W*72
$GPGGA,133414.893,4854.969,N,00910.699,E,1,12,1.0,0.0,M,0.0,M,,*69
$GPGSA,A,3,01,02,03,04,05,06,07,08,09,10,11,12,1.0,1.0,1.0*30
$GPRMC,133414.893,A,4854.969,N,00910.699,E,019.4,226.9,270617,000.0,W*7B
$GPGGA,133415.893,4854.964,N,00910.694,E,1,12,1.0,0.0,M,0.0,M,,*68
$GPGSA,A,3,01,02,03,04,05,06,07,08,09,10,11,12,1.0,1.0,1.0*30
$GPRMC,133415.893,A,4854.964,N,00910.694,E,019.4,226.9,270617,000.0,W*7A
$GPGGA,133416.893,4854.960,N,00910.689,E,1,12,1.0,0.0,M,0.0,M,,*63
$GPGSA,A,3,01,02,03,04,05,06,07,08,09,10,11,12,1.0,1.0,1.0*30
$GPRMC,133416.893,A,4854.960,N,00910.689,E,019.4,226.9,270617,000.0,W*71
$GPGGA,133417.893,4854.956,N,00910.685,E,1,12,1.0,0.0,M,0.0,M,,*6B
$GPGSA,A,3,01,02,03,04,05,06,07,08,09,10,11,12,1.0,1.0,1.0*30
$GPRMC,133417.893,A,4854.956,N,00910.685,E,019.4,226.9,270617,000.0,W*79
$GPGGA,133418.893,4854.951,N,00910.680,E,1,12,1.0,0.0,M,0.0,M,,*66
$GPGSA,A,3,01,02,03,04,05,06,07,08,09,10,11,12,1.0,1.0,1.0*30
$GPRMC,133418.893,A,4854.951,N,00910.680,E,019.4,226.9,270617,000.0,W*74
$GPGGA,133419.893,4854.947,N,00910.675,E,1,12,1.0,0.0,M,0.0,M,,*6A
$GPGSA,A,3,01,02,03,04,05,06,07,08,09,10,11,12,1.0,1.0,1.0*30
$GPRMC,133419.893,A,4854.947,N,00910.675,E,019.4,226.9,270617,000.0,W*78
$GPGGA,133420.893,4854.942,N,00910.670,E,1,12,1.0,0.0,M,0.0,M,,*60
$GPGSA,A,3,01,02,03,04,05,06,07,08,09,10,11,12,1.0,1.0,1.0*30
$GPRMC,133420.893,A,4854.942,N,00910.670,E,019.4,226.9,270617,000.0,W*72
$GPGGA,133421.893,4854.938,N,00910.666,E,1,12,1.0,0.0,M,0.0,M,,*6B
$GPGSA,A,3,01,02,03,04,05,06,07,08,09,10,11,12,1.0,1.0,1.0*30
$GPRMC,133421.893,A,4854.938,N,00910.666,E,019.4,226.9,270617,000.0,W*79
$GPGGA,133422.893,4854.934,N,00910.661,E,1,12,1.0,0.0,M,0.0,M,,*63
$GPGSA,A,3,01,02,03,04,05,06,07,08,09,10,11,12,1.0,1.0,1.0*30
$GPRMC,133422.893,A,4854.934,N,00910.661,E,019.4,226.9,270617,000.0,W*71
$GPGGA,133423.893,4854.929,N,00910.656,E,1,12,1.0,0.0,M,0.0,M,,*6A
$GPGSA,A,3,01,02,03,04,05,06,07,08,09,10,11,12,1.0,1.0,1.0*30
$GPRMC,133423.893,A,4854.929,N,00910.656,E,019.4,226.9,270617,000.0,W*78
$GPGGA,133424.893,4854.925,N,00910.651,E,1,12,1.0,0.0,M,0.0,M,,*66
$GPGSA,A,3,01,02,03,04,05,06,07,08,09,10,11,12,1.0,1.0,1.0*30
$GPRMC,133424.893,A,4854.925,N,00910.651,E,019.4,226.9,270617,000.0,W*74
$GPGGA,133425.893,4854.920,N,00910.647,E,1,12,1.0,0.0,M,0.0,M,,*65
$GPGSA,A,3,01,02,03,04,05,06,07,08,09,10,11,12,1.0,1.0,1.0*30
$GPRMC,133425.893,A,4854.920,N,00910.647,E,019.4,226.9,270617,000.0,W*77
$GPGGA,133426.893,4854.916,N,00910.642,E,1,12,1.0,0.0,M,0.0,M,,*66
$GPGSA,A,3,01,02,03,04,05,06,07,08,09,10,11,12,1.0,1.0,1.0*30
$GPRMC,133426.893,A,4854.916,N,00910.642,E,019.4,226.9,270617,000.0,W*74
$GPGGA,133427.893,4854.912,N,00910.637,E,1,12,1.0,0.0,M,0.0,M,,*61
$GPGSA,A,3,01,02,03,04,05,06,07,08,09,10,11,12,1.0,1.0,1.0*30
$GPRMC,133427.893,A,4854.912,N,00910.637,E,019.4,226.9,270617,000.0,W*73
$GPGGA,133428.893,4854.907,N,00910.633,E,1,12,1.0,0.0,M,0.0,M,,*6E
$GPGSA,A,3,01,02,03,04,05,06,07,08,09,10,11,12,1.0,1.0,1.0*30
$GPRMC,133428.893,A,4854.907,N,00910.633,E,019.4,226.9,270617,000.0,W*7C
$GPGGA,133429.893,4854.903,N,00910.628,E,1,12,1.0,0.0,M,0.0,M,,*61
$GPGSA,A,3,01,02,03,04,05,06,07,08,09,10,11,12,1.0,1.0,1.0*30
$GPRMC,133429.893,A,4854.903,N,00910.628,E,019.4,226.9,270617,000.0,W*73
$GPGGA,133430.893,4854.898,N,00910.623,E,1,12,1.0,0.0,M,0.0,M,,*61
$GPGSA,A,3,01,02,03,04,05,06,07,08,09,10,11,12,1.0,1.0,1.0*30
$GPRMC,133430.893,A,4854.898,N,00910.623,E,019.4,119.6,270617,000.0,W*73
$GPGGA,133431.893,4854.895,N,00910.629,E,1,12,1.0,0.0,M,0.0,M,,*67
$GPGSA,A,3,01,02,03,04,05,06,07,08,09,10,11,12,1.0,1.0,1.0*30
$GPRMC,133431.893,A,4854.895,N,00910.629,E,019.4,119.6,270617,000.0,W*75
$GPGGA,133432.893,4854.891,N,00910.635,E,1,12,1.0,0.0,M,0.0,M,,*6D
$GPGSA,A,3,01,02,03,04,05,06,07,08,09,10,11,12,1.0,1.0,1.0*30
$GPRMC,133432.893,A,4854.891,N,00910.635,E,019.4,119.6,270617,000.0,W*7F
$GPGGA,133433.893,4854.888,N,00910.642,E,1,12,1.0,0.0,M,0.0,M,,*64
$GPGSA,A,3,01,02,03,04,05,06,07,08,09,10,11,12,1.0,1.0,1.0*30
$GPRMC,133433.893,A,4854.888,N,00910.642,E,019.4,119.6,270617,000.0,W*76
$GPGGA,133434.893,4854.884,N,00910.648,E,1,12,1.0,0.0,M,0.0,M,,*65
$GPGSA,A,3,01,02,03,04,05,06,07,08,09,10,11,12,1.0,1.0,1.0*30
$GPRMC,133434.893,A,4854.884,N,00910.648,E,019.4,119.6,270617,000.0,W*77
$GPGGA,133435.893,4854.881,N,00910.654,E,1,12,1.0,0.0,M,0.0,M,,*6C
$GPGSA,A,3,01,02,03,04,05,06,07,08,09,10,11,12,1.0,1.0,1.0*30
$GPRMC,133435.893,A,4854.881,N,00910.654,E,019.4,119.6,270617,000.0,W*7E
$GPGGA,133436.893,4854.877,N,00910.660,E,1,12,1.0,0.0,M,0.0,M,,*61
$GPGSA,A,3,01,02,03,04,05,06,07,08,09,10,11,12,1.0,1.0,1.0*30
$GPRMC,133436.893,A,4854.877,N,00910.660,E,019.4,142.4,270617,000.0,W*7F
$GPGGA,133437.893,4854.872,N,00910.664,E,1,12,1.0,0.0,M,0.0,M,,*61
$GPGSA,A,3,01,02,03,04,05,06,07,08,09,10,11,12,1.0,1.0,1.0*30
$GPRMC,133437.893,A,4854.872,N,00910.664,E,019.4,142.4,270617,000.0,W*7F
$GPGGA,133438.893,4854.868,N,00910.668,E,1,12,1.0,0.0,M,0.0,M,,*69
$GPGSA,A,3,01,02,03,04,05,06,07,08,09,10,11,12,1.0,1.0,1.0*30
$GPRMC,133438.893,A,4854.868,N,00910.668,E,019.4,142.4,270617,000.0,W*77
$GPGGA,133439.893,4854.863,N,00910.672,E,1,12,1.0,0.0,M,0.0,M,,*68
$GPGSA,A,3,01,02,03,04,05,06,07,08,09,10,11,12,1.0,1.0,1.0*30
$GPRMC,133439.893,A,4854.863,N,00910.672,E,019.4,142.4,270617,000.0,W*76
$GPGGA,133440.893,4854.858,N,00910.675,E,1,12,1.0,0.0,M,0.0,M,,*69
$GPGSA,A,3,01,02,03,04,05,06,07,08,09,10,11,12,1.0,1.0,1.0*30
$GPRMC,133440.893,A,4854.858,N,00910.675,E,019.4,142.4,270617,000.0,W*77
$GPGGA,133441.893,4854.853,N,00910.679,E,1,12,1.0,0.0,M,0.0,M,,*6F
$GPGSA,A,3,01,02,03,04,05,06,07,08,09,10,11,12,1.0,1.0,1.0*30
$GPRMC,133441.893,A,4854.853,N,00910.679,E,019.4,142.4,270617,000.0,W*71
$GPGGA,133442.893,4854.848,N,00910.683,E,1,12,1.0,0.0,M,0.0,M,,*63
$GPGSA,A,3,01,02,03,04,05,06,07,08,09,10,11,12,1.0,1.0,1.0*30
$GPRMC,133442.893,A,4854.848,N,00910.683,E,019.4,142.4,270617,000.0,W*7D
$GPGGA,133443.893,4854.844,N,00910.686,E,1,12,1.0,0.0,M,0.0,M,,*6B
$GPGSA,A,3,01,02,03,04,05,06,07,08,09,10,11,12,1.0,1.0,1.0*30
$GPRMC,133443.893,A,4854.844,N,00910.686,E,019.4,142.4,270617,000.0,W*75
$GPGGA,133444.893,4854.839,N,00910.690,E,1,12,1.0,0.0,M,0.0,M,,*61
$GPGSA,A,3,01,02,03,04,05,06,07,08,09,10,11,12,1.0,1.0,1.0*30
$GPRMC,133444.893,A,4854.839,N,00910.690,E,019.4,142.4,270617,000.0,W*7F
$GPGGA,133445.893,4854.834,N,00910.694,E,1,12,1.0,0.0,M,0.0,M,,*69
$GPGSA,A,3,01,02,03,04,05,06,07,08,09,10,11,12,1.0,1.0,1.0*30
$GPRMC,133445.893,A,4854.834,N,00910.694,E,019.4,142.4,270617,000.0,W*77
$GPGGA,133446.893,4854.829,N,00910.698,E,1,12,1.0,0.0,M,0.0,M,,*6A
$GPGSA,A,3,01,02,03,04,05,06,07,08,09,10,11,12,1.0,1.0,1.0*30
$GPRMC,133446.893,A,4854.829,N,00910.698,E,019.4,142.4,270617,000.0,W*74
$GPGGA,133447.893,4854.824,N,00910.701,E,1,12,1.0,0.0,M,0.0,M,,*67
$GPGSA,A,3,01,02,03,04,05,06,07,08,09,10,11,12,1.0,1.0,1.0*30
$GPRMC,133447.893,A,4854.824,N,00910.701,E,019.4,142.4,270617,000.0,W*79
$GPGGA,133448.893,4854.819,N,00910.705,E,1,12,1.0,0.0,M,0.0,M,,*62
$GPGSA,A,3,01,02,03,04,05,06,07,08,09,10,11,12,1.0,1.0,1.0*30
$GPRMC,133448.893,A,4854.819,N,00910.705,E,019.4,142.4,270617,000.0,W*7C
$GPGGA,133449.893,4854.815,N,00910.709,E,1,12,1.0,0.0,M,0.0,M,,*63
$GPGSA,A,3,01,02,03,04,05,06,07,08,09,10,11,12,1.0,1.0,1.0*30
$GPRMC,133449.893,A,4854.815,N,00910.709,E,019.4,142.4,270617,000.0,W*7D
$GPGGA,133450.893,4854.810,N,00910.712,E,1,12,1.0,0.0,M,0.0,M,,*64
$GPGSA,A,3,01,02,03,04,05,06,07,08,09,10,11,12,1.0,1.0,1.0*30
$GPRMC,133450.893,A,4854.810,N,00910.712,E,019.4,142.4,270617,000.0,W*7A
$GPGGA,133451.893,4854.805,N,00910.716,E,1,12,1.0,0.0,M,0.0,M,,*65
$GPGSA,A,3,01,02,03,04,05,06,07,08,09,10,11,12,1.0,1.0,1.0*30
$GPRMC,133451.893,A,4854.805,N,00910.716,E,019.4,142.4,270617,000.0,W*7B
$GPGGA,133452.893,4854.800,N,00910.720,E,1,12,1.0,0.0,M,0.0,M,,*66
$GPGSA,A,3,01,02,03,04,05,06,07,08,09,10,11,12,1.0,1.0,1.0*30
$GPRMC,133452.893,A,4854.800,N,00910.720,E,019.4,142.4,270617,000.0,W*78
$GPGGA,133453.893,4854.795,N,00910.724,E,1,12,1.0,0.0,M,0.0,M,,*60
$GPGSA,A,3,01,02,03,04,05,06,07,08,09,10,11,12,1.0,1.0,1.0*30
$GPRMC,133453.893,A,4854.795,N,00910.724,E,019.4,142.4,270617,000.0,W*7E
$GPGGA,133454.893,4854.791,N,00910.727,E,1,12,1.0,0.0,M,0.0,M,,*60
$GPGSA,A,3,01,02,03,04,05,06,07,08,09,10,11,12,1.0,1.0,1.0*30
$GPRMC,133454.893,A,4854.791,N,00910.727,E,019.4,142.4,270617,000.0,W*7E
$GPGGA,133455.893,4854.786,N,00910.731,E,1,12,1.0,0.0,M,0.0,M,,*60
$GPGSA,A,3,01,02,03,04,05,06,07,08,09,10,11,12,1.0,1.0,1.0*30
$GPRMC,133455.893,A,4854.786,N,00910.731,E,019.4,226.7,270617,000.0,W*7C
$GPGGA,133456.893,4854.781,N,00910.726,E,1,12,1.0,0.0,M,0.0,M,,*62
$GPGSA,A,3,01,02,03,04,05,06,07,08,09,10,11,12,1.0,1.0,1.0*30
$GPRMC,133456.893,A,4854.781,N,00910.726,E,019.4,226.7,270617,000.0,W*7E
$GPGGA,133457.893,4854.777,N,00910.722,E,1,12,1.0,0.0,M,0.0,M,,*6E
$GPGSA,A,3,01,02,03,04,05,06,07,08,09,10,11,12,1.0,1.0,1.0*30
$GPRMC,133457.893,A,4854.777,N,00910.722,E,019.4,226.7,270617,000.0,W*72
$GPGGA,133458.893,4854.773,N,00910.717,E,1,12,1.0,0.0,M,0.0,M,,*63
$GPGSA,A,3,01,02,03,04,05,06,07,08,09,10,11,12,1.0,1.0,1.0*30
$GPRMC,133458.893,A,4854.773,N,00910.717,E,019.4,226.7,270617,000.0,W*7F
$GPGGA,133459.893,4854.768,N,00910.712,E,1,12,1.0,0.0,M,0.0,M,,*6D
$GPGSA,A,3,01,02,03,04,05,06,07,08,09,10,11,12,1.0,1.0,1.0*30
$GPRMC,133459.893,A,4854.768,N,00910.712,E,019.4,226.7,270617,000.0,W*71
$GPGGA,133500.893,4854.764,N,00910.707,E,1,12,1.0,0.0,M,0.0,M,,*68
$GPGSA,A,3,01,02,03,04,05,06,07,08,09,10,11,12,1.0,1.0,1.0*30
$GPRMC,133500.893,A,4854.764,N,00910.707,E,019.4,226.7,270617,000.0,W*74
$GPGGA,133501.893,4854.759,N,00910.703,E,1,12,1.0,0.0,M,0.0,M,,*63
$GPGSA,A,3,01,02,03,04,05,06,07,08,09,10,11,12,1.0,1.0,1.0*30
$GPRMC,133501.893,A,4854.759,N,00910.703,E,019.4,226.7,270617,000.0,W*7F
$GPGGA,133502.893,4854.755,N,00910.698,E,1,12,1.0,0.0,M,0.0,M,,*6F
$GPGSA,A,3,01,02,03,04,05,06,07,08,09,10,11,12,1.0,1.0,1.0*30
$GPRMC,133502.893,A,4854.755,N,00910.698,E,019.4,226.7,270617,000.0,W*73
$GPGGA,133503.893,4854.750,N,00910.693,E,1,12,1.0,0.0,M,0.0,M,,*60
$GPGSA,A,3,01,02,03,04,05,06,07,08,09,10,11,12,1.0,1.0,1.0*30
$GPRMC,133503.893,A,4854.750,N,00910.693,E,019.4,226.7,270617,000.0,W*7C
$GPGGA,133504.893,4854.746,N,00910.689,E,1,12,1.0,0.0,M,0.0,M,,*6B
$GPGSA,A,3,01,02,03,04,05,06,07,08,09,10,11,12,1.0,1.0,1.0*30
$GPRMC,133504.893,A,4854.746,N,00910.689,E,019.4,226.7,270617,000.0,W*77
$GPGGA,133505.893,4854.742,N,00910.684,E,1,12,1.0,0.0,M,0.0,M,,*63
$GPGSA,A,3,01,02,03,04,05,06,07,08,09,10,11,12,1.0,1.0,1.0*30
$GPRMC,133505.893,A,4854.742,N,00910.684,E,019.4,226.7,270617,000.0,W*7F
$GPGGA,133506.893,4854.737,N,00910.679,E,1,12,1.0,0.0,M,0.0,M,,*60
$GPGSA,A,3,01,02,03,04,05,06,07,08,09,10,11,12,1.0,1.0,1.0*30
$GPRMC,133506.893,A,4854.737,N,00910.679,E,019.4,226.7,270617,000.0,W*7C
$GPGGA,133507.893,4854.733,N,00910.674,E,1,12,1.0,0.0,M,0.0,M,,*68
$GPGSA,A,3,01,02,03,04,05,06,07,08,09,10,11,12,1.0,1.0,1.0*30
$GPRMC,133507.893,A,4854.733,N,00910.674,E,019.4,226.7,270617,000.0,W*74
$GPGGA,133508.893,4854.728,N,00910.670,E,1,12,1.0,0.0,M,0.0,M,,*69
$GPGSA,A,3,01,02,03,04,05,06,07,08,09,10,11,12,1.0,1.0,1.0*30
$GPRMC,133508.893,A,4854.728,N,00910.670,E,019.4,226.7,270617,000.0,W*75
$GPGGA,133509.893,4854.724,N,00910.665,E,1,12,1.0,0.0,M,0.0,M,,*60
$GPGSA,A,3,01,02,03,04,05,06,07,08,09,10,11,12,1.0,1.0,1.0*30
$GPRMC,133509.893,A,4854.724,N,00910.665,E,019.4,226.7,270617,000.0,W*7C
$GPGGA,133510.893,4854.720,N,00910.660,E,1,12,1.0,0.0,M,0.0,M,,*69
$GPGSA,A,3,01,02,03,04,05,06,07,08,09,10,11,12,1.0,1.0,1.0*30
$GPRMC,133510.893,A,4854.720,N,00910.660,E,019.4,226.7,270617,000.0,W*75
$GPGGA,133511.893,4854.715,N,00910.656,E,1,12,1.0,0.0,M,0.0,M,,*6B
$GPGSA,A,3,01,02,03,04,05,06,07,08,09,10,11,12,1.0,1.0,1.0*30
$GPRMC,133511.893,A,4854.715,N,00910.656,E,019.4,226.7,270617,000.0,W*77
$GPGGA,133512.893,4854.711,N,00910.651,E,1,12,1.0,0.0,M,0.0,M,,*6B
$GPGSA,A,3,01,02,03,04,05,06,07,08,09,10,11,12,1.0,1.0,1.0*30
$GPRMC,133512.893,A,4854.711,N,00910.651,E,019.4,226.7,270617,000.0,W*77
$GPGGA,133513.893,4854.706,N,00910.646,E,1,12,1.0,0.0,M,0.0,M,,*6A
$GPGSA,A,3,01,02,03,04,05,06,07,08,09,10,11,12,1.0,1.0,1.0*30
$GPRMC,133513.893,A,4854.706,N,00910.646,E,019.4,226.7,270617,000.0,W*76
$GPGGA,133514.893,4854.702,N,00910.641,E,1,12,1.0,0.0,M,0.0,M,,*6E
$GPGSA,A,3,01,02,03,04,05,06,07,08,09,10,11,12,1.0,1.0,1.0*30
$GPRMC,133514.893,A,4854.702,N,00910.641,E,019.4,226.7,270617,000.0,W*72
$GPGGA,133515.893,4854.697,N,00910.637,E,1,12,1.0,0.0,M,0.0,M,,*63
$GPGSA,A,3,01,02,03,04,05,06,07,08,09,10,11,12,1.0,1.0,1.0*30
$GPRMC,133515.893,A,4854.697,N,00910.637,E,019.4,226.7,270617,000.0,W*7F
$GPGGA,133516.893,4854.693,N,00910.632,E,1,12,1.0,0.0,M,0.0,M,,*61
$GPGSA,A,3,01,02,03,04,05,06,07,08,09,10,11,12,1.0,1.0,1.0*30
$GPRMC,133516.893,A,4854.693,N,00910.632,E,019.4,226.7,270617,000.0,W*7D
$GPGGA,133517.893,4854.689,N,00910.627,E,1,12,1.0,0.0,M,0.0,M,,*6F
$GPGSA,A,3,01,02,03,04,05,06,07,08,09,10,11,12,1.0,1.0,1.0*30
$GPRMC,133517.893,A,4854.689,N,00910.627,E,019.4,226.7,270617,000.0,W*73
$GPGGA,133518.893,4854.684,N,00910.623,E,1,12,1.0,0.0,M,0.0,M,,*69
$GPGSA,A,3,01,02,03,04,05,06,07,08,09,10,11,12,1.0,1.0,1.0*30
$GPRMC,133518.893,A,4854.684,N,00910.623,E,019.4,226.7,270617,000.0,W*75
$GPGGA,133519.893,4854.680,N,00910.618,E,1,12,1.0,0.0,M,0.0,M,,*64
$GPGSA,A,3,01,02,03,04,05,06,07,08,09,10,11,12,1.0,1.0,1.0*30
$GPRMC,133519.893,A,4854.680,N,00910.618,E,019.4,226.7,270617,000.0,W*78
$GPGGA,133520.893,4854.675,N,00910.613,E,1,12,1.0,0.0,M,0.0,M,,*6F
$GPGSA,A,3,01,02,03,04,05,06,07,08,09,10,11,12,1.0,1.0,1.0*30
$GPRMC,133520.893,A,4854.675,N,00910.613,E,019.4,303.1,270617,000.0,W*73
$GPGGA,133521.893,4854.679,N,00910.607,E,1,12,1.0,0.0,M,0.0,M,,*67
$GPGSA,A,3,01,02,03,04,05,06,07,08,09,10,11,12,1.0,1.0,1.0*30
$GPRMC,133521.893,A,4854.679,N,00910.607,E,019.4,303.1,270617,000.0,W*7B
$GPGGA,133522.893,4854.683,N,00910.601,E,1,12,1.0,0.0,M,0.0,M,,*67
$GPGSA,A,3,01,02,03,04,05,06,07,08,09,10,11,12,1.0,1.0,1.0*30
$GPRMC,133522.893,A,4854.683,N,00910.601,E,019.4,303.1,270617,000.0,W*7B
$GPGGA,133523.893,4854.687,N,00910.596,E,1,12,1.0,0.0,M,0.0,M,,*6F
$GPGSA,A,3,01,02,03,04,05,06,07,08,09,10,11,12,1.0,1.0,1.0*30
$GPRMC,133523.893,A,4854.687,N,00910.596,E,019.4,303.1,270617,000.0,W*73
$GPGGA,133524.893,4854.691,N,00910.590,E,1,12,1.0,0.0,M,0.0,M,,*69
$GPGSA,A,3,01,02,03,04,05,06,07,08,09,10,11,12,1.0,1.0,1.0*30
$GPRMC,133524.893,A,4854.691,N,00910.590,E,019.4,303.1,270617,000.0,W*75
$GPGGA,133525.893,4854.694,N,00910.584,E,1,12,1.0,0.0,M,0.0,M,,*68
$GPGSA,A,3,01,02,03,04,05,06,07,08,09,10,11,12,1.0,1.0,1.0*30
$GPRMC,133525.893,A,4854.694,N,00910.584,E,019.4,303.1,270617,000.0,W*74
$GPGGA,133526.893,4854.698,N,00910.578,E,1,12,1.0,0.0,M,0.0,M,,*64
$GPGSA,A,3,01,02,03,04,05,06,07,08,09,10,11,12,1.0,1.0,1.0*30
$GPRMC,133526.893,A,4854.698,N,00910.578,E,019.4,303.1,270617,000.0,W*78
$GPGGA,133527.893,4854.702,N,00910.572,E,1,12,1.0,0.0,M,0.0,M,,*6D
$GPGSA,A,3,01,02,03,04,05,06,07,08,09,10,11,12,1.0,1.0,1.0*30
$GPRMC,133527.893,A,4854.702,N,00910.572,E,019.4,303.1,270617,000.0,W*71
$GPGGA,133528.893,4854.706,N,00910.566,E,1,12,1.0,0.0,M,0.0,M,,*63
$GPGSA,A,3,01,02,03,04,05,06,07,08,09,10,11,12,1.0,1.0,1.0*30
$GPRMC,133528.893,A,4854.706,N,00910.566,E,019.4,303.1,270617,000.0,W*7F
$GPGGA,133529.893,4854.710,N,00910.561,E,1,12,1.0,0.0,M,0.0,M,,*62
$GPGSA,A,3,01,02,03,04,05,06,07,08,09,10,11,12,1.0,1.0,1.0*30
$GPRMC,133529.893,A,4854.710,N,00910.561,E,019.4,303.1,270617,000.0,W*7E
